[

{"name":"Lafayette (LAFY)","code":"LF","address":"3601 Deer Hill Road, Lafayette CA 94549","entries":"3481","exits":"3616","coordinates":[-122.121,37.893394]},
{"name":"Lafayette (LAFY)","code":"LF","address":"3601 Deer Hill Road, Lafayette CA 94549","entries":"3481","exits":"3616","coordinates":[-122.122,37.893394]},
{"name":"Lafayette (LAFY)","code":"LF","address":"3601 Deer Hill Road, Lafayette CA 94549","entries":"3481","exits":"3616","coordinates":[-122.123,37.893394]},
{"name":"Lafayette (LAFY)","code":"LF","address":"3601 Deer Hill Road, Lafayette CA 94549","entries":"3481","exits":"3616","coordinates":[-122.124,37.893394]},
{"name":"Lafayette (LAFY)","code":"LF","address":"3601 Deer Hill Road, Lafayette CA 94549","entries":"3481","exits":"3616","coordinates":[-122.125,37.893394]},
{"name":"Lafayette (LAFY)","code":"LF","address":"3601 Deer Hill Road, Lafayette CA 94549","entries":"3481","exits":"3616","coordinates":[-122.126,37.893394]},
{"name":"Lafayette (LAFY)","code":"LF","address":"3601 Deer Hill Road, Lafayette CA 94549","entries":"3481","exits":"3616","coordinates":[-122.127,37.893394]},
{"name":"Lafayette (LAFY)","code":"LF","address":"3601 Deer Hill Road, Lafayette CA 94549","entries":"3481","exits":"3616","coordinates":[-122.128,37.893394]},
{"name":"Lafayette (LAFY)","code":"LF","address":"3601 Deer Hill Road, Lafayette CA 94549","entries":"3481","exits":"3616","coordinates":[-122.129,37.893394]},
{"name":"Lafayette (LAFY)","code":"LF","address":"3601 Deer Hill Road, Lafayette CA 94549","entries":"3481","exits":"3616","coordinates":[-122.1210,37.893394]},
{"name":"Lafayette (LAFY)","code":"LF","address":"3601 Deer Hill Road, Lafayette CA 94549","entries":"3481","exits":"3616","coordinates":[-122.1211,37.893394]},
{"name":"Lafayette (LAFY)","code":"LF","address":"3601 Deer Hill Road, Lafayette CA 94549","entries":"3481","exits":"3616","coordinates":[-122.1212,37.893394]},
{"name":"Lafayette (LAFY)","code":"LF","address":"3601 Deer Hill Road, Lafayette CA 94549","entries":"3481","exits":"3616","coordinates":[-122.1213,37.893394]},
{"name":"Lafayette (LAFY)","code":"LF","address":"3601 Deer Hill Road, Lafayette CA 94549","entries":"3481","exits":"3616","coordinates":[-122.1214,37.893394]},
{"name":"Lafayette (LAFY)","code":"LF","address":"3601 Deer Hill Road, Lafayette CA 94549","entries":"3481","exits":"3616","coordinates":[-122.1215,37.893394]},
{"name":"Lafayette (LAFY)","code":"LF","address":"3601 Deer Hill Road, Lafayette CA 94549","entries":"3481","exits":"3616","coordinates":[-122.1216,37.893394]},
{"name":"Lafayette (LAFY)","code":"LF","address":"3601 Deer Hill Road, Lafayette CA 94549","entries":"3481","exits":"3616","coordinates":[-122.1217,37.893394]},
{"name":"Lafayette (LAFY)","code":"LF","address":"3601 Deer Hill Road, Lafayette CA 94549","entries":"3481","exits":"3616","coordinates":[-122.1218,37.893394]},
{"name":"Lafayette (LAFY)","code":"LF","address":"3601 Deer Hill Road, Lafayette CA 94549","entries":"3481","exits":"3616","coordinates":[-122.1219,37.893394]},
{"name":"Lafayette (LAFY)","code":"LF","address":"3601 Deer Hill Road, Lafayette CA 94549","entries":"3481","exits":"3616","coordinates":[-122.1220,37.893394]},
{"name":"Lafayette (LAFY)","code":"LF","address":"3601 Deer Hill Road, Lafayette CA 94549","entries":"3481","exits":"3616","coordinates":[-122.1221,37.893394]},
{"name":"Lafayette (LAFY)","code":"LF","address":"3601 Deer Hill Road, Lafayette CA 94549","entries":"3481","exits":"3616","coordinates":[-122.1222,37.893394]},
{"name":"Lafayette (LAFY)","code":"LF","address":"3601 Deer Hill Road, Lafayette CA 94549","entries":"3481","exits":"3616","coordinates":[-122.1223,37.893394]},
{"name":"Lafayette (LAFY)","code":"LF","address":"3601 Deer Hill Road, Lafayette CA 94549","entries":"3481","exits":"3616","coordinates":[-122.1224,37.893394]},
{"name":"Lafayette (LAFY)","code":"LF","address":"3601 Deer Hill Road, Lafayette CA 94549","entries":"3481","exits":"3616","coordinates":[-122.1225,37.893394]},
{"name":"Lafayette (LAFY)","code":"LF","address":"3601 Deer Hill Road, Lafayette CA 94549","entries":"3481","exits":"3616","coordinates":[-122.1226,37.893394]},
{"name":"Lafayette (LAFY)","code":"LF","address":"3601 Deer Hill Road, Lafayette CA 94549","entries":"3481","exits":"3616","coordinates":[-122.1227,37.893394]},
{"name":"Lafayette (LAFY)","code":"LF","address":"3601 Deer Hill Road, Lafayette CA 94549","entries":"3481","exits":"3616","coordinates":[-122.1228,37.893394]},
{"name":"Lafayette (LAFY)","code":"LF","address":"3601 Deer Hill Road, Lafayette CA 94549","entries":"3481","exits":"3616","coordinates":[-122.1229,37.893394]},
{"name":"Lafayette (LAFY)","code":"LF","address":"3601 Deer Hill Road, Lafayette CA 94549","entries":"3481","exits":"3616","coordinates":[-122.1230,37.893394]},
{"name":"Lafayette (LAFY)","code":"LF","address":"3601 Deer Hill Road, Lafayette CA 94549","entries":"3481","exits":"3616","coordinates":[-122.1231,37.893394]},
{"name":"Lafayette (LAFY)","code":"LF","address":"3601 Deer Hill Road, Lafayette CA 94549","entries":"3481","exits":"3616","coordinates":[-122.1232,37.893394]},
{"name":"Lafayette (LAFY)","code":"LF","address":"3601 Deer Hill Road, Lafayette CA 94549","entries":"3481","exits":"3616","coordinates":[-122.1233,37.893394]},
{"name":"Lafayette (LAFY)","code":"LF","address":"3601 Deer Hill Road, Lafayette CA 94549","entries":"3481","exits":"3616","coordinates":[-122.1234,37.893394]},
{"name":"Lafayette (LAFY)","code":"LF","address":"3601 Deer Hill Road, Lafayette CA 94549","entries":"3481","exits":"3616","coordinates":[-122.1235,37.893394]},
{"name":"Lafayette (LAFY)","code":"LF","address":"3601 Deer Hill Road, Lafayette CA 94549","entries":"3481","exits":"3616","coordinates":[-122.1236,37.893394]},
{"name":"Lafayette (LAFY)","code":"LF","address":"3601 Deer Hill Road, Lafayette CA 94549","entries":"3481","exits":"3616","coordinates":[-122.1237,37.893394]},
{"name":"Lafayette (LAFY)","code":"LF","address":"3601 Deer Hill Road, Lafayette CA 94549","entries":"3481","exits":"3616","coordinates":[-122.1238,37.893394]},
{"name":"Lafayette (LAFY)","code":"LF","address":"3601 Deer Hill Road, Lafayette CA 94549","entries":"3481","exits":"3616","coordinates":[-122.1239,37.893394]},
{"name":"Lafayette (LAFY)","code":"LF","address":"3601 Deer Hill Road, Lafayette CA 94549","entries":"3481","exits":"3616","coordinates":[-122.1240,37.893394]},
{"name":"Lafayette (LAFY)","code":"LF","address":"3601 Deer Hill Road, Lafayette CA 94549","entries":"3481","exits":"3616","coordinates":[-122.1241,37.893394]},
{"name":"Lafayette (LAFY)","code":"LF","address":"3601 Deer Hill Road, Lafayette CA 94549","entries":"3481","exits":"3616","coordinates":[-122.1242,37.893394]},
{"name":"Lafayette (LAFY)","code":"LF","address":"3601 Deer Hill Road, Lafayette CA 94549","entries":"3481","exits":"3616","coordinates":[-122.1243,37.893394]},
{"name":"Lafayette (LAFY)","code":"LF","address":"3601 Deer Hill Road, Lafayette CA 94549","entries":"3481","exits":"3616","coordinates":[-122.1244,37.893394]},
{"name":"Lafayette (LAFY)","code":"LF","address":"3601 Deer Hill Road, Lafayette CA 94549","entries":"3481","exits":"3616","coordinates":[-122.1245,37.893394]},
{"name":"Lafayette (LAFY)","code":"LF","address":"3601 Deer Hill Road, Lafayette CA 94549","entries":"3481","exits":"3616","coordinates":[-122.1246,37.893394]},
{"name":"Lafayette (LAFY)","code":"LF","address":"3601 Deer Hill Road, Lafayette CA 94549","entries":"3481","exits":"3616","coordinates":[-122.1247,37.893394]},
{"name":"Lafayette (LAFY)","code":"LF","address":"3601 Deer Hill Road, Lafayette CA 94549","entries":"3481","exits":"3616","coordinates":[-122.1248,37.893394]},
{"name":"Lafayette (LAFY)","code":"LF","address":"3601 Deer Hill Road, Lafayette CA 94549","entries":"3481","exits":"3616","coordinates":[-122.1249,37.893394]},
{"name":"Lafayette (LAFY)","code":"LF","address":"3601 Deer Hill Road, Lafayette CA 94549","entries":"3481","exits":"3616","coordinates":[-122.1250,37.893394]},
{"name":"Lafayette (LAFY)","code":"LF","address":"3601 Deer Hill Road, Lafayette CA 94549","entries":"3481","exits":"3616","coordinates":[-122.1251,37.893394]},
{"name":"Lafayette (LAFY)","code":"LF","address":"3601 Deer Hill Road, Lafayette CA 94549","entries":"3481","exits":"3616","coordinates":[-122.1252,37.893394]},
{"name":"Lafayette (LAFY)","code":"LF","address":"3601 Deer Hill Road, Lafayette CA 94549","entries":"3481","exits":"3616","coordinates":[-122.1253,37.893394]},
{"name":"Lafayette (LAFY)","code":"LF","address":"3601 Deer Hill Road, Lafayette CA 94549","entries":"3481","exits":"3616","coordinates":[-122.1254,37.893394]},
{"name":"Lafayette (LAFY)","code":"LF","address":"3601 Deer Hill Road, Lafayette CA 94549","entries":"3481","exits":"3616","coordinates":[-122.1255,37.893394]},
{"name":"Lafayette (LAFY)","code":"LF","address":"3601 Deer Hill Road, Lafayette CA 94549","entries":"3481","exits":"3616","coordinates":[-122.1256,37.893394]},
{"name":"Lafayette (LAFY)","code":"LF","address":"3601 Deer Hill Road, Lafayette CA 94549","entries":"3481","exits":"3616","coordinates":[-122.1257,37.893394]},
{"name":"Lafayette (LAFY)","code":"LF","address":"3601 Deer Hill Road, Lafayette CA 94549","entries":"3481","exits":"3616","coordinates":[-122.1258,37.893394]},
{"name":"Lafayette (LAFY)","code":"LF","address":"3601 Deer Hill Road, Lafayette CA 94549","entries":"3481","exits":"3616","coordinates":[-122.1259,37.893394]},
{"name":"Lafayette (LAFY)","code":"LF","address":"3601 Deer Hill Road, Lafayette CA 94549","entries":"3481","exits":"3616","coordinates":[-122.1260,37.893394]},
{"name":"Lafayette (LAFY)","code":"LF","address":"3601 Deer Hill Road, Lafayette CA 94549","entries":"3481","exits":"3616","coordinates":[-122.1261,37.893394]},
{"name":"Lafayette (LAFY)","code":"LF","address":"3601 Deer Hill Road, Lafayette CA 94549","entries":"3481","exits":"3616","coordinates":[-122.1262,37.893394]},
{"name":"Lafayette (LAFY)","code":"LF","address":"3601 Deer Hill Road, Lafayette CA 94549","entries":"3481","exits":"3616","coordinates":[-122.1263,37.893394]},
{"name":"Lafayette (LAFY)","code":"LF","address":"3601 Deer Hill Road, Lafayette CA 94549","entries":"3481","exits":"3616","coordinates":[-122.1264,37.893394]},
{"name":"Lafayette (LAFY)","code":"LF","address":"3601 Deer Hill Road, Lafayette CA 94549","entries":"3481","exits":"3616","coordinates":[-122.1265,37.893394]},
{"name":"Lafayette (LAFY)","code":"LF","address":"3601 Deer Hill Road, Lafayette CA 94549","entries":"3481","exits":"3616","coordinates":[-122.1266,37.893394]},
{"name":"Lafayette (LAFY)","code":"LF","address":"3601 Deer Hill Road, Lafayette CA 94549","entries":"3481","exits":"3616","coordinates":[-122.1267,37.893394]},
{"name":"Lafayette (LAFY)","code":"LF","address":"3601 Deer Hill Road, Lafayette CA 94549","entries":"3481","exits":"3616","coordinates":[-122.1268,37.893394]},
{"name":"Lafayette (LAFY)","code":"LF","address":"3601 Deer Hill Road, Lafayette CA 94549","entries":"3481","exits":"3616","coordinates":[-122.1269,37.893394]},
{"name":"Lafayette (LAFY)","code":"LF","address":"3601 Deer Hill Road, Lafayette CA 94549","entries":"3481","exits":"3616","coordinates":[-122.1270,37.893394]},
{"name":"Lafayette (LAFY)","code":"LF","address":"3601 Deer Hill Road, Lafayette CA 94549","entries":"3481","exits":"3616","coordinates":[-122.1271,37.893394]},
{"name":"Lafayette (LAFY)","code":"LF","address":"3601 Deer Hill Road, Lafayette CA 94549","entries":"3481","exits":"3616","coordinates":[-122.1272,37.893394]},
{"name":"Lafayette (LAFY)","code":"LF","address":"3601 Deer Hill Road, Lafayette CA 94549","entries":"3481","exits":"3616","coordinates":[-122.1273,37.893394]},
{"name":"Lafayette (LAFY)","code":"LF","address":"3601 Deer Hill Road, Lafayette CA 94549","entries":"3481","exits":"3616","coordinates":[-122.1274,37.893394]},
{"name":"Lafayette (LAFY)","code":"LF","address":"3601 Deer Hill Road, Lafayette CA 94549","entries":"3481","exits":"3616","coordinates":[-122.1275,37.893394]},
{"name":"Lafayette (LAFY)","code":"LF","address":"3601 Deer Hill Road, Lafayette CA 94549","entries":"3481","exits":"3616","coordinates":[-122.1276,37.893394]},
{"name":"Lafayette (LAFY)","code":"LF","address":"3601 Deer Hill Road, Lafayette CA 94549","entries":"3481","exits":"3616","coordinates":[-122.1277,37.893394]},
{"name":"Lafayette (LAFY)","code":"LF","address":"3601 Deer Hill Road, Lafayette CA 94549","entries":"3481","exits":"3616","coordinates":[-122.1278,37.893394]},
{"name":"Lafayette (LAFY)","code":"LF","address":"3601 Deer Hill Road, Lafayette CA 94549","entries":"3481","exits":"3616","coordinates":[-122.1279,37.893394]},
{"name":"Lafayette (LAFY)","code":"LF","address":"3601 Deer Hill Road, Lafayette CA 94549","entries":"3481","exits":"3616","coordinates":[-122.1280,37.893394]},
{"name":"Lafayette (LAFY)","code":"LF","address":"3601 Deer Hill Road, Lafayette CA 94549","entries":"3481","exits":"3616","coordinates":[-122.1281,37.893394]},
{"name":"Lafayette (LAFY)","code":"LF","address":"3601 Deer Hill Road, Lafayette CA 94549","entries":"3481","exits":"3616","coordinates":[-122.1282,37.893394]},
{"name":"Lafayette (LAFY)","code":"LF","address":"3601 Deer Hill Road, Lafayette CA 94549","entries":"3481","exits":"3616","coordinates":[-122.1283,37.893394]},
{"name":"Lafayette (LAFY)","code":"LF","address":"3601 Deer Hill Road, Lafayette CA 94549","entries":"3481","exits":"3616","coordinates":[-122.1284,37.893394]},
{"name":"Lafayette (LAFY)","code":"LF","address":"3601 Deer Hill Road, Lafayette CA 94549","entries":"3481","exits":"3616","coordinates":[-122.1285,37.893394]},
{"name":"Lafayette (LAFY)","code":"LF","address":"3601 Deer Hill Road, Lafayette CA 94549","entries":"3481","exits":"3616","coordinates":[-122.1286,37.893394]},
{"name":"Lafayette (LAFY)","code":"LF","address":"3601 Deer Hill Road, Lafayette CA 94549","entries":"3481","exits":"3616","coordinates":[-122.1287,37.893394]},
{"name":"Lafayette (LAFY)","code":"LF","address":"3601 Deer Hill Road, Lafayette CA 94549","entries":"3481","exits":"3616","coordinates":[-122.1288,37.893394]},
{"name":"Lafayette (LAFY)","code":"LF","address":"3601 Deer Hill Road, Lafayette CA 94549","entries":"3481","exits":"3616","coordinates":[-122.1289,37.893394]},
{"name":"Lafayette (LAFY)","code":"LF","address":"3601 Deer Hill Road, Lafayette CA 94549","entries":"3481","exits":"3616","coordinates":[-122.1290,37.893394]},
{"name":"Lafayette (LAFY)","code":"LF","address":"3601 Deer Hill Road, Lafayette CA 94549","entries":"3481","exits":"3616","coordinates":[-122.1291,37.893394]},
{"name":"Lafayette (LAFY)","code":"LF","address":"3601 Deer Hill Road, Lafayette CA 94549","entries":"3481","exits":"3616","coordinates":[-122.1292,37.893394]},
{"name":"Lafayette (LAFY)","code":"LF","address":"3601 Deer Hill Road, Lafayette CA 94549","entries":"3481","exits":"3616","coordinates":[-122.1293,37.893394]},
{"name":"Lafayette (LAFY)","code":"LF","address":"3601 Deer Hill Road, Lafayette CA 94549","entries":"3481","exits":"3616","coordinates":[-122.1294,37.893394]},
{"name":"Lafayette (LAFY)","code":"LF","address":"3601 Deer Hill Road, Lafayette CA 94549","entries":"3481","exits":"3616","coordinates":[-122.1295,37.893394]},
{"name":"Lafayette (LAFY)","code":"LF","address":"3601 Deer Hill Road, Lafayette CA 94549","entries":"3481","exits":"3616","coordinates":[-122.1296,37.893394]},
{"name":"Lafayette (LAFY)","code":"LF","address":"3601 Deer Hill Road, Lafayette CA 94549","entries":"3481","exits":"3616","coordinates":[-122.1297,37.893394]},
{"name":"Lafayette (LAFY)","code":"LF","address":"3601 Deer Hill Road, Lafayette CA 94549","entries":"3481","exits":"3616","coordinates":[-122.1298,37.893394]},
{"name":"Lafayette (LAFY)","code":"LF","address":"3601 Deer Hill Road, Lafayette CA 94549","entries":"3481","exits":"3616","coordinates":[-122.1299,37.893394]},
{"name":"Lafayette (LAFY)","code":"LF","address":"3601 Deer Hill Road, Lafayette CA 94549","entries":"3481","exits":"3616","coordinates":[-122.12100,37.893394]},
{"name":"Lafayette (LAFY)","code":"LF","address":"3601 Deer Hill Road, Lafayette CA 94549","entries":"3481","exits":"3616","coordinates":[-122.12101,37.893394]},
{"name":"Lafayette (LAFY)","code":"LF","address":"3601 Deer Hill Road, Lafayette CA 94549","entries":"3481","exits":"3616","coordinates":[-122.12102,37.893394]},
{"name":"Lafayette (LAFY)","code":"LF","address":"3601 Deer Hill Road, Lafayette CA 94549","entries":"3481","exits":"3616","coordinates":[-122.12103,37.893394]},
{"name":"Lafayette (LAFY)","code":"LF","address":"3601 Deer Hill Road, Lafayette CA 94549","entries":"3481","exits":"3616","coordinates":[-122.12104,37.893394]},
{"name":"Lafayette (LAFY)","code":"LF","address":"3601 Deer Hill Road, Lafayette CA 94549","entries":"3481","exits":"3616","coordinates":[-122.12105,37.893394]},
{"name":"Lafayette (LAFY)","code":"LF","address":"3601 Deer Hill Road, Lafayette CA 94549","entries":"3481","exits":"3616","coordinates":[-122.12106,37.893394]},
{"name":"Lafayette (LAFY)","code":"LF","address":"3601 Deer Hill Road, Lafayette CA 94549","entries":"3481","exits":"3616","coordinates":[-122.12107,37.893394]},
{"name":"Lafayette (LAFY)","code":"LF","address":"3601 Deer Hill Road, Lafayette CA 94549","entries":"3481","exits":"3616","coordinates":[-122.12108,37.893394]},
{"name":"Lafayette (LAFY)","code":"LF","address":"3601 Deer Hill Road, Lafayette CA 94549","entries":"3481","exits":"3616","coordinates":[-122.12109,37.893394]},
{"name":"Lafayette (LAFY)","code":"LF","address":"3601 Deer Hill Road, Lafayette CA 94549","entries":"3481","exits":"3616","coordinates":[-122.12110,37.893394]},
{"name":"Lafayette (LAFY)","code":"LF","address":"3601 Deer Hill Road, Lafayette CA 94549","entries":"3481","exits":"3616","coordinates":[-122.12111,37.893394]},
{"name":"Lafayette (LAFY)","code":"LF","address":"3601 Deer Hill Road, Lafayette CA 94549","entries":"3481","exits":"3616","coordinates":[-122.12112,37.893394]},
{"name":"Lafayette (LAFY)","code":"LF","address":"3601 Deer Hill Road, Lafayette CA 94549","entries":"3481","exits":"3616","coordinates":[-122.12113,37.893394]},
{"name":"Lafayette (LAFY)","code":"LF","address":"3601 Deer Hill Road, Lafayette CA 94549","entries":"3481","exits":"3616","coordinates":[-122.12114,37.893394]},
{"name":"Lafayette (LAFY)","code":"LF","address":"3601 Deer Hill Road, Lafayette CA 94549","entries":"3481","exits":"3616","coordinates":[-122.12115,37.893394]},
{"name":"Lafayette (LAFY)","code":"LF","address":"3601 Deer Hill Road, Lafayette CA 94549","entries":"3481","exits":"3616","coordinates":[-122.12116,37.893394]},
{"name":"Lafayette (LAFY)","code":"LF","address":"3601 Deer Hill Road, Lafayette CA 94549","entries":"3481","exits":"3616","coordinates":[-122.12117,37.893394]},
{"name":"Lafayette (LAFY)","code":"LF","address":"3601 Deer Hill Road, Lafayette CA 94549","entries":"3481","exits":"3616","coordinates":[-122.12118,37.893394]},
{"name":"Lafayette (LAFY)","code":"LF","address":"3601 Deer Hill Road, Lafayette CA 94549","entries":"3481","exits":"3616","coordinates":[-122.12119,37.893394]},
{"name":"Lafayette (LAFY)","code":"LF","address":"3601 Deer Hill Road, Lafayette CA 94549","entries":"3481","exits":"3616","coordinates":[-122.12120,37.893394]},
{"name":"Lafayette (LAFY)","code":"LF","address":"3601 Deer Hill Road, Lafayette CA 94549","entries":"3481","exits":"3616","coordinates":[-122.12121,37.893394]},
{"name":"Lafayette (LAFY)","code":"LF","address":"3601 Deer Hill Road, Lafayette CA 94549","entries":"3481","exits":"3616","coordinates":[-122.12122,37.893394]},
{"name":"Lafayette (LAFY)","code":"LF","address":"3601 Deer Hill Road, Lafayette CA 94549","entries":"3481","exits":"3616","coordinates":[-122.12123,37.893394]},
{"name":"Lafayette (LAFY)","code":"LF","address":"3601 Deer Hill Road, Lafayette CA 94549","entries":"3481","exits":"3616","coordinates":[-122.12124,37.893394]},
{"name":"Lafayette (LAFY)","code":"LF","address":"3601 Deer Hill Road, Lafayette CA 94549","entries":"3481","exits":"3616","coordinates":[-122.12125,37.893394]},
{"name":"Lafayette (LAFY)","code":"LF","address":"3601 Deer Hill Road, Lafayette CA 94549","entries":"3481","exits":"3616","coordinates":[-122.12126,37.893394]},
{"name":"Lafayette (LAFY)","code":"LF","address":"3601 Deer Hill Road, Lafayette CA 94549","entries":"3481","exits":"3616","coordinates":[-122.12127,37.893394]},
{"name":"Lafayette (LAFY)","code":"LF","address":"3601 Deer Hill Road, Lafayette CA 94549","entries":"3481","exits":"3616","coordinates":[-122.12128,37.893394]},
{"name":"Lafayette (LAFY)","code":"LF","address":"3601 Deer Hill Road, Lafayette CA 94549","entries":"3481","exits":"3616","coordinates":[-122.12129,37.893394]},
{"name":"Lafayette (LAFY)","code":"LF","address":"3601 Deer Hill Road, Lafayette CA 94549","entries":"3481","exits":"3616","coordinates":[-122.12130,37.893394]},
{"name":"Lafayette (LAFY)","code":"LF","address":"3601 Deer Hill Road, Lafayette CA 94549","entries":"3481","exits":"3616","coordinates":[-122.12131,37.893394]},
{"name":"Lafayette (LAFY)","code":"LF","address":"3601 Deer Hill Road, Lafayette CA 94549","entries":"3481","exits":"3616","coordinates":[-122.12132,37.893394]},
{"name":"Lafayette (LAFY)","code":"LF","address":"3601 Deer Hill Road, Lafayette CA 94549","entries":"3481","exits":"3616","coordinates":[-122.12133,37.893394]},
{"name":"Lafayette (LAFY)","code":"LF","address":"3601 Deer Hill Road, Lafayette CA 94549","entries":"3481","exits":"3616","coordinates":[-122.12134,37.893394]},
{"name":"Lafayette (LAFY)","code":"LF","address":"3601 Deer Hill Road, Lafayette CA 94549","entries":"3481","exits":"3616","coordinates":[-122.12135,37.893394]},
{"name":"Lafayette (LAFY)","code":"LF","address":"3601 Deer Hill Road, Lafayette CA 94549","entries":"3481","exits":"3616","coordinates":[-122.12136,37.893394]},
{"name":"Lafayette (LAFY)","code":"LF","address":"3601 Deer Hill Road, Lafayette CA 94549","entries":"3481","exits":"3616","coordinates":[-122.12137,37.893394]},
{"name":"Lafayette (LAFY)","code":"LF","address":"3601 Deer Hill Road, Lafayette CA 94549","entries":"3481","exits":"3616","coordinates":[-122.12138,37.893394]},
{"name":"Lafayette (LAFY)","code":"LF","address":"3601 Deer Hill Road, Lafayette CA 94549","entries":"3481","exits":"3616","coordinates":[-122.12139,37.893394]},
{"name":"Lafayette (LAFY)","code":"LF","address":"3601 Deer Hill Road, Lafayette CA 94549","entries":"3481","exits":"3616","coordinates":[-122.12140,37.893394]},
{"name":"Lafayette (LAFY)","code":"LF","address":"3601 Deer Hill Road, Lafayette CA 94549","entries":"3481","exits":"3616","coordinates":[-122.12141,37.893394]},
{"name":"Lafayette (LAFY)","code":"LF","address":"3601 Deer Hill Road, Lafayette CA 94549","entries":"3481","exits":"3616","coordinates":[-122.12142,37.893394]},
{"name":"Lafayette (LAFY)","code":"LF","address":"3601 Deer Hill Road, Lafayette CA 94549","entries":"3481","exits":"3616","coordinates":[-122.12143,37.893394]},
{"name":"Lafayette (LAFY)","code":"LF","address":"3601 Deer Hill Road, Lafayette CA 94549","entries":"3481","exits":"3616","coordinates":[-122.12144,37.893394]},
{"name":"Lafayette (LAFY)","code":"LF","address":"3601 Deer Hill Road, Lafayette CA 94549","entries":"3481","exits":"3616","coordinates":[-122.12145,37.893394]},
{"name":"Lafayette (LAFY)","code":"LF","address":"3601 Deer Hill Road, Lafayette CA 94549","entries":"3481","exits":"3616","coordinates":[-122.12146,37.893394]},
{"name":"Lafayette (LAFY)","code":"LF","address":"3601 Deer Hill Road, Lafayette CA 94549","entries":"3481","exits":"3616","coordinates":[-122.12147,37.893394]},
{"name":"Lafayette (LAFY)","code":"LF","address":"3601 Deer Hill Road, Lafayette CA 94549","entries":"3481","exits":"3616","coordinates":[-122.12148,37.893394]},
{"name":"Lafayette (LAFY)","code":"LF","address":"3601 Deer Hill Road, Lafayette CA 94549","entries":"3481","exits":"3616","coordinates":[-122.12149,37.893394]},
{"name":"Lafayette (LAFY)","code":"LF","address":"3601 Deer Hill Road, Lafayette CA 94549","entries":"3481","exits":"3616","coordinates":[-122.12150,37.893394]},
{"name":"Lafayette (LAFY)","code":"LF","address":"3601 Deer Hill Road, Lafayette CA 94549","entries":"3481","exits":"3616","coordinates":[-122.12151,37.893394]},
{"name":"Lafayette (LAFY)","code":"LF","address":"3601 Deer Hill Road, Lafayette CA 94549","entries":"3481","exits":"3616","coordinates":[-122.12152,37.893394]},
{"name":"Lafayette (LAFY)","code":"LF","address":"3601 Deer Hill Road, Lafayette CA 94549","entries":"3481","exits":"3616","coordinates":[-122.12153,37.893394]},
{"name":"Lafayette (LAFY)","code":"LF","address":"3601 Deer Hill Road, Lafayette CA 94549","entries":"3481","exits":"3616","coordinates":[-122.12154,37.893394]},
{"name":"Lafayette (LAFY)","code":"LF","address":"3601 Deer Hill Road, Lafayette CA 94549","entries":"3481","exits":"3616","coordinates":[-122.12155,37.893394]},
{"name":"Lafayette (LAFY)","code":"LF","address":"3601 Deer Hill Road, Lafayette CA 94549","entries":"3481","exits":"3616","coordinates":[-122.12156,37.893394]},
{"name":"Lafayette (LAFY)","code":"LF","address":"3601 Deer Hill Road, Lafayette CA 94549","entries":"3481","exits":"3616","coordinates":[-122.12157,37.893394]},
{"name":"Lafayette (LAFY)","code":"LF","address":"3601 Deer Hill Road, Lafayette CA 94549","entries":"3481","exits":"3616","coordinates":[-122.12158,37.893394]},
{"name":"Lafayette (LAFY)","code":"LF","address":"3601 Deer Hill Road, Lafayette CA 94549","entries":"3481","exits":"3616","coordinates":[-122.12159,37.893394]},
{"name":"Lafayette (LAFY)","code":"LF","address":"3601 Deer Hill Road, Lafayette CA 94549","entries":"3481","exits":"3616","coordinates":[-122.12160,37.893394]},
{"name":"Lafayette (LAFY)","code":"LF","address":"3601 Deer Hill Road, Lafayette CA 94549","entries":"3481","exits":"3616","coordinates":[-122.12161,37.893394]},
{"name":"Lafayette (LAFY)","code":"LF","address":"3601 Deer Hill Road, Lafayette CA 94549","entries":"3481","exits":"3616","coordinates":[-122.12162,37.893394]},
{"name":"Lafayette (LAFY)","code":"LF","address":"3601 Deer Hill Road, Lafayette CA 94549","entries":"3481","exits":"3616","coordinates":[-122.12163,37.893394]},
{"name":"Lafayette (LAFY)","code":"LF","address":"3601 Deer Hill Road, Lafayette CA 94549","entries":"3481","exits":"3616","coordinates":[-122.12164,37.893394]},
{"name":"Lafayette (LAFY)","code":"LF","address":"3601 Deer Hill Road, Lafayette CA 94549","entries":"3481","exits":"3616","coordinates":[-122.12165,37.893394]},
{"name":"Lafayette (LAFY)","code":"LF","address":"3601 Deer Hill Road, Lafayette CA 94549","entries":"3481","exits":"3616","coordinates":[-122.12166,37.893394]},
{"name":"Lafayette (LAFY)","code":"LF","address":"3601 Deer Hill Road, Lafayette CA 94549","entries":"3481","exits":"3616","coordinates":[-122.12167,37.893394]},
{"name":"Lafayette (LAFY)","code":"LF","address":"3601 Deer Hill Road, Lafayette CA 94549","entries":"3481","exits":"3616","coordinates":[-122.12168,37.893394]},
{"name":"Lafayette (LAFY)","code":"LF","address":"3601 Deer Hill Road, Lafayette CA 94549","entries":"3481","exits":"3616","coordinates":[-122.12169,37.893394]},
{"name":"Lafayette (LAFY)","code":"LF","address":"3601 Deer Hill Road, Lafayette CA 94549","entries":"3481","exits":"3616","coordinates":[-122.12170,37.893394]},
{"name":"Lafayette (LAFY)","code":"LF","address":"3601 Deer Hill Road, Lafayette CA 94549","entries":"3481","exits":"3616","coordinates":[-122.12171,37.893394]},
{"name":"Lafayette (LAFY)","code":"LF","address":"3601 Deer Hill Road, Lafayette CA 94549","entries":"3481","exits":"3616","coordinates":[-122.12172,37.893394]},
{"name":"Lafayette (LAFY)","code":"LF","address":"3601 Deer Hill Road, Lafayette CA 94549","entries":"3481","exits":"3616","coordinates":[-122.12173,37.893394]},
{"name":"Lafayette (LAFY)","code":"LF","address":"3601 Deer Hill Road, Lafayette CA 94549","entries":"3481","exits":"3616","coordinates":[-122.12174,37.893394]},
{"name":"Lafayette (LAFY)","code":"LF","address":"3601 Deer Hill Road, Lafayette CA 94549","entries":"3481","exits":"3616","coordinates":[-122.12175,37.893394]},
{"name":"Lafayette (LAFY)","code":"LF","address":"3601 Deer Hill Road, Lafayette CA 94549","entries":"3481","exits":"3616","coordinates":[-122.12176,37.893394]},
{"name":"Lafayette (LAFY)","code":"LF","address":"3601 Deer Hill Road, Lafayette CA 94549","entries":"3481","exits":"3616","coordinates":[-122.12177,37.893394]},
{"name":"Lafayette (LAFY)","code":"LF","address":"3601 Deer Hill Road, Lafayette CA 94549","entries":"3481","exits":"3616","coordinates":[-122.12178,37.893394]},
{"name":"Lafayette (LAFY)","code":"LF","address":"3601 Deer Hill Road, Lafayette CA 94549","entries":"3481","exits":"3616","coordinates":[-122.12179,37.893394]},
{"name":"Lafayette (LAFY)","code":"LF","address":"3601 Deer Hill Road, Lafayette CA 94549","entries":"3481","exits":"3616","coordinates":[-122.12180,37.893394]},
{"name":"Lafayette (LAFY)","code":"LF","address":"3601 Deer Hill Road, Lafayette CA 94549","entries":"3481","exits":"3616","coordinates":[-122.12181,37.893394]},
{"name":"Lafayette (LAFY)","code":"LF","address":"3601 Deer Hill Road, Lafayette CA 94549","entries":"3481","exits":"3616","coordinates":[-122.12182,37.893394]},
{"name":"Lafayette (LAFY)","code":"LF","address":"3601 Deer Hill Road, Lafayette CA 94549","entries":"3481","exits":"3616","coordinates":[-122.12183,37.893394]},
{"name":"Lafayette (LAFY)","code":"LF","address":"3601 Deer Hill Road, Lafayette CA 94549","entries":"3481","exits":"3616","coordinates":[-122.12184,37.893394]},
{"name":"Lafayette (LAFY)","code":"LF","address":"3601 Deer Hill Road, Lafayette CA 94549","entries":"3481","exits":"3616","coordinates":[-122.12185,37.893394]},
{"name":"Lafayette (LAFY)","code":"LF","address":"3601 Deer Hill Road, Lafayette CA 94549","entries":"3481","exits":"3616","coordinates":[-122.12186,37.893394]},
{"name":"Lafayette (LAFY)","code":"LF","address":"3601 Deer Hill Road, Lafayette CA 94549","entries":"3481","exits":"3616","coordinates":[-122.12187,37.893394]},
{"name":"Lafayette (LAFY)","code":"LF","address":"3601 Deer Hill Road, Lafayette CA 94549","entries":"3481","exits":"3616","coordinates":[-122.12188,37.893394]},
{"name":"Lafayette (LAFY)","code":"LF","address":"3601 Deer Hill Road, Lafayette CA 94549","entries":"3481","exits":"3616","coordinates":[-122.12189,37.893394]},
{"name":"Lafayette (LAFY)","code":"LF","address":"3601 Deer Hill Road, Lafayette CA 94549","entries":"3481","exits":"3616","coordinates":[-122.12190,37.893394]},
{"name":"Lafayette (LAFY)","code":"LF","address":"3601 Deer Hill Road, Lafayette CA 94549","entries":"3481","exits":"3616","coordinates":[-122.12191,37.893394]},
{"name":"Lafayette (LAFY)","code":"LF","address":"3601 Deer Hill Road, Lafayette CA 94549","entries":"3481","exits":"3616","coordinates":[-122.12192,37.893394]},
{"name":"Lafayette (LAFY)","code":"LF","address":"3601 Deer Hill Road, Lafayette CA 94549","entries":"3481","exits":"3616","coordinates":[-122.12193,37.893394]},
{"name":"Lafayette (LAFY)","code":"LF","address":"3601 Deer Hill Road, Lafayette CA 94549","entries":"3481","exits":"3616","coordinates":[-122.12194,37.893394]},
{"name":"Lafayette (LAFY)","code":"LF","address":"3601 Deer Hill Road, Lafayette CA 94549","entries":"3481","exits":"3616","coordinates":[-122.12195,37.893394]},
{"name":"Lafayette (LAFY)","code":"LF","address":"3601 Deer Hill Road, Lafayette CA 94549","entries":"3481","exits":"3616","coordinates":[-122.12196,37.893394]},
{"name":"Lafayette (LAFY)","code":"LF","address":"3601 Deer Hill Road, Lafayette CA 94549","entries":"3481","exits":"3616","coordinates":[-122.12197,37.893394]},
{"name":"Lafayette (LAFY)","code":"LF","address":"3601 Deer Hill Road, Lafayette CA 94549","entries":"3481","exits":"3616","coordinates":[-122.12198,37.893394]},
{"name":"Lafayette (LAFY)","code":"LF","address":"3601 Deer Hill Road, Lafayette CA 94549","entries":"3481","exits":"3616","coordinates":[-122.12199,37.893394]},
{"name":"Lafayette (LAFY)","code":"LF","address":"3601 Deer Hill Road, Lafayette CA 94549","entries":"3481","exits":"3616","coordinates":[-122.12200,37.893394]},
{"name":"Lafayette (LAFY)","code":"LF","address":"3601 Deer Hill Road, Lafayette CA 94549","entries":"3481","exits":"3616","coordinates":[-122.12201,37.893394]},
{"name":"Lafayette (LAFY)","code":"LF","address":"3601 Deer Hill Road, Lafayette CA 94549","entries":"3481","exits":"3616","coordinates":[-122.12202,37.893394]},
{"name":"Lafayette (LAFY)","code":"LF","address":"3601 Deer Hill Road, Lafayette CA 94549","entries":"3481","exits":"3616","coordinates":[-122.12203,37.893394]},
{"name":"Lafayette (LAFY)","code":"LF","address":"3601 Deer Hill Road, Lafayette CA 94549","entries":"3481","exits":"3616","coordinates":[-122.12204,37.893394]},
{"name":"Lafayette (LAFY)","code":"LF","address":"3601 Deer Hill Road, Lafayette CA 94549","entries":"3481","exits":"3616","coordinates":[-122.12205,37.893394]},
{"name":"Lafayette (LAFY)","code":"LF","address":"3601 Deer Hill Road, Lafayette CA 94549","entries":"3481","exits":"3616","coordinates":[-122.12206,37.893394]},
{"name":"Lafayette (LAFY)","code":"LF","address":"3601 Deer Hill Road, Lafayette CA 94549","entries":"3481","exits":"3616","coordinates":[-122.12207,37.893394]},
{"name":"Lafayette (LAFY)","code":"LF","address":"3601 Deer Hill Road, Lafayette CA 94549","entries":"3481","exits":"3616","coordinates":[-122.12208,37.893394]},
{"name":"Lafayette (LAFY)","code":"LF","address":"3601 Deer Hill Road, Lafayette CA 94549","entries":"3481","exits":"3616","coordinates":[-122.12209,37.893394]},
{"name":"Lafayette (LAFY)","code":"LF","address":"3601 Deer Hill Road, Lafayette CA 94549","entries":"3481","exits":"3616","coordinates":[-122.12210,37.893394]},
{"name":"Lafayette (LAFY)","code":"LF","address":"3601 Deer Hill Road, Lafayette CA 94549","entries":"3481","exits":"3616","coordinates":[-122.12211,37.893394]},
{"name":"Lafayette (LAFY)","code":"LF","address":"3601 Deer Hill Road, Lafayette CA 94549","entries":"3481","exits":"3616","coordinates":[-122.12212,37.893394]},
{"name":"Lafayette (LAFY)","code":"LF","address":"3601 Deer Hill Road, Lafayette CA 94549","entries":"3481","exits":"3616","coordinates":[-122.12213,37.893394]},
{"name":"Lafayette (LAFY)","code":"LF","address":"3601 Deer Hill Road, Lafayette CA 94549","entries":"3481","exits":"3616","coordinates":[-122.12214,37.893394]},
{"name":"Lafayette (LAFY)","code":"LF","address":"3601 Deer Hill Road, Lafayette CA 94549","entries":"3481","exits":"3616","coordinates":[-122.12215,37.893394]},
{"name":"Lafayette (LAFY)","code":"LF","address":"3601 Deer Hill Road, Lafayette CA 94549","entries":"3481","exits":"3616","coordinates":[-122.12216,37.893394]},
{"name":"Lafayette (LAFY)","code":"LF","address":"3601 Deer Hill Road, Lafayette CA 94549","entries":"3481","exits":"3616","coordinates":[-122.12217,37.893394]},
{"name":"Lafayette (LAFY)","code":"LF","address":"3601 Deer Hill Road, Lafayette CA 94549","entries":"3481","exits":"3616","coordinates":[-122.12218,37.893394]},
{"name":"Lafayette (LAFY)","code":"LF","address":"3601 Deer Hill Road, Lafayette CA 94549","entries":"3481","exits":"3616","coordinates":[-122.12219,37.893394]},
{"name":"Lafayette (LAFY)","code":"LF","address":"3601 Deer Hill Road, Lafayette CA 94549","entries":"3481","exits":"3616","coordinates":[-122.12220,37.893394]},
{"name":"Lafayette (LAFY)","code":"LF","address":"3601 Deer Hill Road, Lafayette CA 94549","entries":"3481","exits":"3616","coordinates":[-122.12221,37.893394]},
{"name":"Lafayette (LAFY)","code":"LF","address":"3601 Deer Hill Road, Lafayette CA 94549","entries":"3481","exits":"3616","coordinates":[-122.12222,37.893394]},
{"name":"Lafayette (LAFY)","code":"LF","address":"3601 Deer Hill Road, Lafayette CA 94549","entries":"3481","exits":"3616","coordinates":[-122.12223,37.893394]},
{"name":"Lafayette (LAFY)","code":"LF","address":"3601 Deer Hill Road, Lafayette CA 94549","entries":"3481","exits":"3616","coordinates":[-122.12224,37.893394]},
{"name":"Lafayette (LAFY)","code":"LF","address":"3601 Deer Hill Road, Lafayette CA 94549","entries":"3481","exits":"3616","coordinates":[-122.12225,37.893394]},
{"name":"Lafayette (LAFY)","code":"LF","address":"3601 Deer Hill Road, Lafayette CA 94549","entries":"3481","exits":"3616","coordinates":[-122.12226,37.893394]},
{"name":"Lafayette (LAFY)","code":"LF","address":"3601 Deer Hill Road, Lafayette CA 94549","entries":"3481","exits":"3616","coordinates":[-122.12227,37.893394]},
{"name":"Lafayette (LAFY)","code":"LF","address":"3601 Deer Hill Road, Lafayette CA 94549","entries":"3481","exits":"3616","coordinates":[-122.12228,37.893394]},
{"name":"Lafayette (LAFY)","code":"LF","address":"3601 Deer Hill Road, Lafayette CA 94549","entries":"3481","exits":"3616","coordinates":[-122.12229,37.893394]},
{"name":"Lafayette (LAFY)","code":"LF","address":"3601 Deer Hill Road, Lafayette CA 94549","entries":"3481","exits":"3616","coordinates":[-122.12230,37.893394]},
{"name":"Lafayette (LAFY)","code":"LF","address":"3601 Deer Hill Road, Lafayette CA 94549","entries":"3481","exits":"3616","coordinates":[-122.12231,37.893394]},
{"name":"Lafayette (LAFY)","code":"LF","address":"3601 Deer Hill Road, Lafayette CA 94549","entries":"3481","exits":"3616","coordinates":[-122.12232,37.893394]},
{"name":"Lafayette (LAFY)","code":"LF","address":"3601 Deer Hill Road, Lafayette CA 94549","entries":"3481","exits":"3616","coordinates":[-122.12233,37.893394]},
{"name":"Lafayette (LAFY)","code":"LF","address":"3601 Deer Hill Road, Lafayette CA 94549","entries":"3481","exits":"3616","coordinates":[-122.12234,37.893394]},
{"name":"Lafayette (LAFY)","code":"LF","address":"3601 Deer Hill Road, Lafayette CA 94549","entries":"3481","exits":"3616","coordinates":[-122.12235,37.893394]},
{"name":"Lafayette (LAFY)","code":"LF","address":"3601 Deer Hill Road, Lafayette CA 94549","entries":"3481","exits":"3616","coordinates":[-122.12236,37.893394]},
{"name":"Lafayette (LAFY)","code":"LF","address":"3601 Deer Hill Road, Lafayette CA 94549","entries":"3481","exits":"3616","coordinates":[-122.12237,37.893394]},
{"name":"Lafayette (LAFY)","code":"LF","address":"3601 Deer Hill Road, Lafayette CA 94549","entries":"3481","exits":"3616","coordinates":[-122.12238,37.893394]},
{"name":"Lafayette (LAFY)","code":"LF","address":"3601 Deer Hill Road, Lafayette CA 94549","entries":"3481","exits":"3616","coordinates":[-122.12239,37.893394]},
{"name":"Lafayette (LAFY)","code":"LF","address":"3601 Deer Hill Road, Lafayette CA 94549","entries":"3481","exits":"3616","coordinates":[-122.12240,37.893394]},
{"name":"Lafayette (LAFY)","code":"LF","address":"3601 Deer Hill Road, Lafayette CA 94549","entries":"3481","exits":"3616","coordinates":[-122.12241,37.893394]},
{"name":"Lafayette (LAFY)","code":"LF","address":"3601 Deer Hill Road, Lafayette CA 94549","entries":"3481","exits":"3616","coordinates":[-122.12242,37.893394]},
{"name":"Lafayette (LAFY)","code":"LF","address":"3601 Deer Hill Road, Lafayette CA 94549","entries":"3481","exits":"3616","coordinates":[-122.12243,37.893394]},
{"name":"Lafayette (LAFY)","code":"LF","address":"3601 Deer Hill Road, Lafayette CA 94549","entries":"3481","exits":"3616","coordinates":[-122.12244,37.893394]},
{"name":"Lafayette (LAFY)","code":"LF","address":"3601 Deer Hill Road, Lafayette CA 94549","entries":"3481","exits":"3616","coordinates":[-122.12245,37.893394]},
{"name":"Lafayette (LAFY)","code":"LF","address":"3601 Deer Hill Road, Lafayette CA 94549","entries":"3481","exits":"3616","coordinates":[-122.12246,37.893394]},
{"name":"Lafayette (LAFY)","code":"LF","address":"3601 Deer Hill Road, Lafayette CA 94549","entries":"3481","exits":"3616","coordinates":[-122.12247,37.893394]},
{"name":"Lafayette (LAFY)","code":"LF","address":"3601 Deer Hill Road, Lafayette CA 94549","entries":"3481","exits":"3616","coordinates":[-122.12248,37.893394]},
{"name":"Lafayette (LAFY)","code":"LF","address":"3601 Deer Hill Road, Lafayette CA 94549","entries":"3481","exits":"3616","coordinates":[-122.12249,37.893394]},
{"name":"Lafayette (LAFY)","code":"LF","address":"3601 Deer Hill Road, Lafayette CA 94549","entries":"3481","exits":"3616","coordinates":[-122.12250,37.893394]},
{"name":"Lafayette (LAFY)","code":"LF","address":"3601 Deer Hill Road, Lafayette CA 94549","entries":"3481","exits":"3616","coordinates":[-122.12251,37.893394]},
{"name":"Lafayette (LAFY)","code":"LF","address":"3601 Deer Hill Road, Lafayette CA 94549","entries":"3481","exits":"3616","coordinates":[-122.12252,37.893394]},
{"name":"Lafayette (LAFY)","code":"LF","address":"3601 Deer Hill Road, Lafayette CA 94549","entries":"3481","exits":"3616","coordinates":[-122.12253,37.893394]},
{"name":"Lafayette (LAFY)","code":"LF","address":"3601 Deer Hill Road, Lafayette CA 94549","entries":"3481","exits":"3616","coordinates":[-122.12254,37.893394]},
{"name":"Lafayette (LAFY)","code":"LF","address":"3601 Deer Hill Road, Lafayette CA 94549","entries":"3481","exits":"3616","coordinates":[-122.12255,37.893394]},
{"name":"Lafayette (LAFY)","code":"LF","address":"3601 Deer Hill Road, Lafayette CA 94549","entries":"3481","exits":"3616","coordinates":[-122.12256,37.893394]},
{"name":"Lafayette (LAFY)","code":"LF","address":"3601 Deer Hill Road, Lafayette CA 94549","entries":"3481","exits":"3616","coordinates":[-122.12257,37.893394]},
{"name":"Lafayette (LAFY)","code":"LF","address":"3601 Deer Hill Road, Lafayette CA 94549","entries":"3481","exits":"3616","coordinates":[-122.12258,37.893394]},
{"name":"Lafayette (LAFY)","code":"LF","address":"3601 Deer Hill Road, Lafayette CA 94549","entries":"3481","exits":"3616","coordinates":[-122.12259,37.893394]},
{"name":"Lafayette (LAFY)","code":"LF","address":"3601 Deer Hill Road, Lafayette CA 94549","entries":"3481","exits":"3616","coordinates":[-122.12260,37.893394]},
{"name":"Lafayette (LAFY)","code":"LF","address":"3601 Deer Hill Road, Lafayette CA 94549","entries":"3481","exits":"3616","coordinates":[-122.12261,37.893394]},
{"name":"Lafayette (LAFY)","code":"LF","address":"3601 Deer Hill Road, Lafayette CA 94549","entries":"3481","exits":"3616","coordinates":[-122.12262,37.893394]},
{"name":"Lafayette (LAFY)","code":"LF","address":"3601 Deer Hill Road, Lafayette CA 94549","entries":"3481","exits":"3616","coordinates":[-122.12263,37.893394]},
{"name":"Lafayette (LAFY)","code":"LF","address":"3601 Deer Hill Road, Lafayette CA 94549","entries":"3481","exits":"3616","coordinates":[-122.12264,37.893394]},
{"name":"Lafayette (LAFY)","code":"LF","address":"3601 Deer Hill Road, Lafayette CA 94549","entries":"3481","exits":"3616","coordinates":[-122.12265,37.893394]},
{"name":"Lafayette (LAFY)","code":"LF","address":"3601 Deer Hill Road, Lafayette CA 94549","entries":"3481","exits":"3616","coordinates":[-122.12266,37.893394]},
{"name":"Lafayette (LAFY)","code":"LF","address":"3601 Deer Hill Road, Lafayette CA 94549","entries":"3481","exits":"3616","coordinates":[-122.12267,37.893394]},
{"name":"Lafayette (LAFY)","code":"LF","address":"3601 Deer Hill Road, Lafayette CA 94549","entries":"3481","exits":"3616","coordinates":[-122.12268,37.893394]},
{"name":"Lafayette (LAFY)","code":"LF","address":"3601 Deer Hill Road, Lafayette CA 94549","entries":"3481","exits":"3616","coordinates":[-122.12269,37.893394]},
{"name":"Lafayette (LAFY)","code":"LF","address":"3601 Deer Hill Road, Lafayette CA 94549","entries":"3481","exits":"3616","coordinates":[-122.12270,37.893394]},
{"name":"Lafayette (LAFY)","code":"LF","address":"3601 Deer Hill Road, Lafayette CA 94549","entries":"3481","exits":"3616","coordinates":[-122.12271,37.893394]},
{"name":"Lafayette (LAFY)","code":"LF","address":"3601 Deer Hill Road, Lafayette CA 94549","entries":"3481","exits":"3616","coordinates":[-122.12272,37.893394]},
{"name":"Lafayette (LAFY)","code":"LF","address":"3601 Deer Hill Road, Lafayette CA 94549","entries":"3481","exits":"3616","coordinates":[-122.12273,37.893394]},
{"name":"Lafayette (LAFY)","code":"LF","address":"3601 Deer Hill Road, Lafayette CA 94549","entries":"3481","exits":"3616","coordinates":[-122.12274,37.893394]},
{"name":"Lafayette (LAFY)","code":"LF","address":"3601 Deer Hill Road, Lafayette CA 94549","entries":"3481","exits":"3616","coordinates":[-122.12275,37.893394]},
{"name":"Lafayette (LAFY)","code":"LF","address":"3601 Deer Hill Road, Lafayette CA 94549","entries":"3481","exits":"3616","coordinates":[-122.12276,37.893394]},
{"name":"Lafayette (LAFY)","code":"LF","address":"3601 Deer Hill Road, Lafayette CA 94549","entries":"3481","exits":"3616","coordinates":[-122.12277,37.893394]},
{"name":"Lafayette (LAFY)","code":"LF","address":"3601 Deer Hill Road, Lafayette CA 94549","entries":"3481","exits":"3616","coordinates":[-122.12278,37.893394]},
{"name":"Lafayette (LAFY)","code":"LF","address":"3601 Deer Hill Road, Lafayette CA 94549","entries":"3481","exits":"3616","coordinates":[-122.12279,37.893394]},
{"name":"Lafayette (LAFY)","code":"LF","address":"3601 Deer Hill Road, Lafayette CA 94549","entries":"3481","exits":"3616","coordinates":[-122.12280,37.893394]},
{"name":"Lafayette (LAFY)","code":"LF","address":"3601 Deer Hill Road, Lafayette CA 94549","entries":"3481","exits":"3616","coordinates":[-122.12281,37.893394]},
{"name":"Lafayette (LAFY)","code":"LF","address":"3601 Deer Hill Road, Lafayette CA 94549","entries":"3481","exits":"3616","coordinates":[-122.12282,37.893394]},
{"name":"Lafayette (LAFY)","code":"LF","address":"3601 Deer Hill Road, Lafayette CA 94549","entries":"3481","exits":"3616","coordinates":[-122.12283,37.893394]},
{"name":"Lafayette (LAFY)","code":"LF","address":"3601 Deer Hill Road, Lafayette CA 94549","entries":"3481","exits":"3616","coordinates":[-122.12284,37.893394]},
{"name":"Lafayette (LAFY)","code":"LF","address":"3601 Deer Hill Road, Lafayette CA 94549","entries":"3481","exits":"3616","coordinates":[-122.12285,37.893394]},
{"name":"Lafayette (LAFY)","code":"LF","address":"3601 Deer Hill Road, Lafayette CA 94549","entries":"3481","exits":"3616","coordinates":[-122.12286,37.893394]},
{"name":"Lafayette (LAFY)","code":"LF","address":"3601 Deer Hill Road, Lafayette CA 94549","entries":"3481","exits":"3616","coordinates":[-122.12287,37.893394]},
{"name":"Lafayette (LAFY)","code":"LF","address":"3601 Deer Hill Road, Lafayette CA 94549","entries":"3481","exits":"3616","coordinates":[-122.12288,37.893394]},
{"name":"Lafayette (LAFY)","code":"LF","address":"3601 Deer Hill Road, Lafayette CA 94549","entries":"3481","exits":"3616","coordinates":[-122.12289,37.893394]},
{"name":"Lafayette (LAFY)","code":"LF","address":"3601 Deer Hill Road, Lafayette CA 94549","entries":"3481","exits":"3616","coordinates":[-122.12290,37.893394]},
{"name":"Lafayette (LAFY)","code":"LF","address":"3601 Deer Hill Road, Lafayette CA 94549","entries":"3481","exits":"3616","coordinates":[-122.12291,37.893394]},
{"name":"Lafayette (LAFY)","code":"LF","address":"3601 Deer Hill Road, Lafayette CA 94549","entries":"3481","exits":"3616","coordinates":[-122.12292,37.893394]},
{"name":"Lafayette (LAFY)","code":"LF","address":"3601 Deer Hill Road, Lafayette CA 94549","entries":"3481","exits":"3616","coordinates":[-122.12293,37.893394]},
{"name":"Lafayette (LAFY)","code":"LF","address":"3601 Deer Hill Road, Lafayette CA 94549","entries":"3481","exits":"3616","coordinates":[-122.12294,37.893394]},
{"name":"Lafayette (LAFY)","code":"LF","address":"3601 Deer Hill Road, Lafayette CA 94549","entries":"3481","exits":"3616","coordinates":[-122.12295,37.893394]},
{"name":"Lafayette (LAFY)","code":"LF","address":"3601 Deer Hill Road, Lafayette CA 94549","entries":"3481","exits":"3616","coordinates":[-122.12296,37.893394]},
{"name":"Lafayette (LAFY)","code":"LF","address":"3601 Deer Hill Road, Lafayette CA 94549","entries":"3481","exits":"3616","coordinates":[-122.12297,37.893394]},
{"name":"Lafayette (LAFY)","code":"LF","address":"3601 Deer Hill Road, Lafayette CA 94549","entries":"3481","exits":"3616","coordinates":[-122.12298,37.893394]},
{"name":"Lafayette (LAFY)","code":"LF","address":"3601 Deer Hill Road, Lafayette CA 94549","entries":"3481","exits":"3616","coordinates":[-122.12299,37.893394]},
{"name":"Lafayette (LAFY)","code":"LF","address":"3601 Deer Hill Road, Lafayette CA 94549","entries":"3481","exits":"3616","coordinates":[-122.12300,37.893394]},
{"name":"Lafayette (LAFY)","code":"LF","address":"3601 Deer Hill Road, Lafayette CA 94549","entries":"3481","exits":"3616","coordinates":[-122.12301,37.893394]},
{"name":"Lafayette (LAFY)","code":"LF","address":"3601 Deer Hill Road, Lafayette CA 94549","entries":"3481","exits":"3616","coordinates":[-122.12302,37.893394]},
{"name":"Lafayette (LAFY)","code":"LF","address":"3601 Deer Hill Road, Lafayette CA 94549","entries":"3481","exits":"3616","coordinates":[-122.12303,37.893394]},
{"name":"Lafayette (LAFY)","code":"LF","address":"3601 Deer Hill Road, Lafayette CA 94549","entries":"3481","exits":"3616","coordinates":[-122.12304,37.893394]},
{"name":"Lafayette (LAFY)","code":"LF","address":"3601 Deer Hill Road, Lafayette CA 94549","entries":"3481","exits":"3616","coordinates":[-122.12305,37.893394]},
{"name":"Lafayette (LAFY)","code":"LF","address":"3601 Deer Hill Road, Lafayette CA 94549","entries":"3481","exits":"3616","coordinates":[-122.12306,37.893394]},
{"name":"Lafayette (LAFY)","code":"LF","address":"3601 Deer Hill Road, Lafayette CA 94549","entries":"3481","exits":"3616","coordinates":[-122.12307,37.893394]},
{"name":"Lafayette (LAFY)","code":"LF","address":"3601 Deer Hill Road, Lafayette CA 94549","entries":"3481","exits":"3616","coordinates":[-122.12308,37.893394]},
{"name":"Lafayette (LAFY)","code":"LF","address":"3601 Deer Hill Road, Lafayette CA 94549","entries":"3481","exits":"3616","coordinates":[-122.12309,37.893394]},
{"name":"Lafayette (LAFY)","code":"LF","address":"3601 Deer Hill Road, Lafayette CA 94549","entries":"3481","exits":"3616","coordinates":[-122.12310,37.893394]},
{"name":"Lafayette (LAFY)","code":"LF","address":"3601 Deer Hill Road, Lafayette CA 94549","entries":"3481","exits":"3616","coordinates":[-122.12311,37.893394]},
{"name":"Lafayette (LAFY)","code":"LF","address":"3601 Deer Hill Road, Lafayette CA 94549","entries":"3481","exits":"3616","coordinates":[-122.12312,37.893394]},
{"name":"Lafayette (LAFY)","code":"LF","address":"3601 Deer Hill Road, Lafayette CA 94549","entries":"3481","exits":"3616","coordinates":[-122.12313,37.893394]},
{"name":"Lafayette (LAFY)","code":"LF","address":"3601 Deer Hill Road, Lafayette CA 94549","entries":"3481","exits":"3616","coordinates":[-122.12314,37.893394]},
{"name":"Lafayette (LAFY)","code":"LF","address":"3601 Deer Hill Road, Lafayette CA 94549","entries":"3481","exits":"3616","coordinates":[-122.12315,37.893394]},
{"name":"Lafayette (LAFY)","code":"LF","address":"3601 Deer Hill Road, Lafayette CA 94549","entries":"3481","exits":"3616","coordinates":[-122.12316,37.893394]},
{"name":"Lafayette (LAFY)","code":"LF","address":"3601 Deer Hill Road, Lafayette CA 94549","entries":"3481","exits":"3616","coordinates":[-122.12317,37.893394]},
{"name":"Lafayette (LAFY)","code":"LF","address":"3601 Deer Hill Road, Lafayette CA 94549","entries":"3481","exits":"3616","coordinates":[-122.12318,37.893394]},
{"name":"Lafayette (LAFY)","code":"LF","address":"3601 Deer Hill Road, Lafayette CA 94549","entries":"3481","exits":"3616","coordinates":[-122.12319,37.893394]},
{"name":"Lafayette (LAFY)","code":"LF","address":"3601 Deer Hill Road, Lafayette CA 94549","entries":"3481","exits":"3616","coordinates":[-122.12320,37.893394]},
{"name":"Lafayette (LAFY)","code":"LF","address":"3601 Deer Hill Road, Lafayette CA 94549","entries":"3481","exits":"3616","coordinates":[-122.12321,37.893394]},
{"name":"Lafayette (LAFY)","code":"LF","address":"3601 Deer Hill Road, Lafayette CA 94549","entries":"3481","exits":"3616","coordinates":[-122.12322,37.893394]},
{"name":"Lafayette (LAFY)","code":"LF","address":"3601 Deer Hill Road, Lafayette CA 94549","entries":"3481","exits":"3616","coordinates":[-122.12323,37.893394]},
{"name":"Lafayette (LAFY)","code":"LF","address":"3601 Deer Hill Road, Lafayette CA 94549","entries":"3481","exits":"3616","coordinates":[-122.12324,37.893394]},
{"name":"Lafayette (LAFY)","code":"LF","address":"3601 Deer Hill Road, Lafayette CA 94549","entries":"3481","exits":"3616","coordinates":[-122.12325,37.893394]},
{"name":"Lafayette (LAFY)","code":"LF","address":"3601 Deer Hill Road, Lafayette CA 94549","entries":"3481","exits":"3616","coordinates":[-122.12326,37.893394]},
{"name":"Lafayette (LAFY)","code":"LF","address":"3601 Deer Hill Road, Lafayette CA 94549","entries":"3481","exits":"3616","coordinates":[-122.12327,37.893394]},
{"name":"Lafayette (LAFY)","code":"LF","address":"3601 Deer Hill Road, Lafayette CA 94549","entries":"3481","exits":"3616","coordinates":[-122.12328,37.893394]},
{"name":"Lafayette (LAFY)","code":"LF","address":"3601 Deer Hill Road, Lafayette CA 94549","entries":"3481","exits":"3616","coordinates":[-122.12329,37.893394]},
{"name":"Lafayette (LAFY)","code":"LF","address":"3601 Deer Hill Road, Lafayette CA 94549","entries":"3481","exits":"3616","coordinates":[-122.12330,37.893394]},
{"name":"Lafayette (LAFY)","code":"LF","address":"3601 Deer Hill Road, Lafayette CA 94549","entries":"3481","exits":"3616","coordinates":[-122.12331,37.893394]},
{"name":"Lafayette (LAFY)","code":"LF","address":"3601 Deer Hill Road, Lafayette CA 94549","entries":"3481","exits":"3616","coordinates":[-122.12332,37.893394]},
{"name":"Lafayette (LAFY)","code":"LF","address":"3601 Deer Hill Road, Lafayette CA 94549","entries":"3481","exits":"3616","coordinates":[-122.12333,37.893394]},
{"name":"Lafayette (LAFY)","code":"LF","address":"3601 Deer Hill Road, Lafayette CA 94549","entries":"3481","exits":"3616","coordinates":[-122.12334,37.893394]},
{"name":"Lafayette (LAFY)","code":"LF","address":"3601 Deer Hill Road, Lafayette CA 94549","entries":"3481","exits":"3616","coordinates":[-122.12335,37.893394]},
{"name":"Lafayette (LAFY)","code":"LF","address":"3601 Deer Hill Road, Lafayette CA 94549","entries":"3481","exits":"3616","coordinates":[-122.12336,37.893394]},
{"name":"Lafayette (LAFY)","code":"LF","address":"3601 Deer Hill Road, Lafayette CA 94549","entries":"3481","exits":"3616","coordinates":[-122.12337,37.893394]},
{"name":"Lafayette (LAFY)","code":"LF","address":"3601 Deer Hill Road, Lafayette CA 94549","entries":"3481","exits":"3616","coordinates":[-122.12338,37.893394]},
{"name":"Lafayette (LAFY)","code":"LF","address":"3601 Deer Hill Road, Lafayette CA 94549","entries":"3481","exits":"3616","coordinates":[-122.12339,37.893394]},
{"name":"Lafayette (LAFY)","code":"LF","address":"3601 Deer Hill Road, Lafayette CA 94549","entries":"3481","exits":"3616","coordinates":[-122.12340,37.893394]},
{"name":"Lafayette (LAFY)","code":"LF","address":"3601 Deer Hill Road, Lafayette CA 94549","entries":"3481","exits":"3616","coordinates":[-122.12341,37.893394]},
{"name":"Lafayette (LAFY)","code":"LF","address":"3601 Deer Hill Road, Lafayette CA 94549","entries":"3481","exits":"3616","coordinates":[-122.12342,37.893394]},
{"name":"Lafayette (LAFY)","code":"LF","address":"3601 Deer Hill Road, Lafayette CA 94549","entries":"3481","exits":"3616","coordinates":[-122.12343,37.893394]},
{"name":"Lafayette (LAFY)","code":"LF","address":"3601 Deer Hill Road, Lafayette CA 94549","entries":"3481","exits":"3616","coordinates":[-122.12344,37.893394]},
{"name":"Lafayette (LAFY)","code":"LF","address":"3601 Deer Hill Road, Lafayette CA 94549","entries":"3481","exits":"3616","coordinates":[-122.12345,37.893394]},
{"name":"Lafayette (LAFY)","code":"LF","address":"3601 Deer Hill Road, Lafayette CA 94549","entries":"3481","exits":"3616","coordinates":[-122.12346,37.893394]},
{"name":"Lafayette (LAFY)","code":"LF","address":"3601 Deer Hill Road, Lafayette CA 94549","entries":"3481","exits":"3616","coordinates":[-122.12347,37.893394]},
{"name":"Lafayette (LAFY)","code":"LF","address":"3601 Deer Hill Road, Lafayette CA 94549","entries":"3481","exits":"3616","coordinates":[-122.12348,37.893394]},
{"name":"Lafayette (LAFY)","code":"LF","address":"3601 Deer Hill Road, Lafayette CA 94549","entries":"3481","exits":"3616","coordinates":[-122.12349,37.893394]},
{"name":"Lafayette (LAFY)","code":"LF","address":"3601 Deer Hill Road, Lafayette CA 94549","entries":"3481","exits":"3616","coordinates":[-122.12350,37.893394]},
{"name":"Lafayette (LAFY)","code":"LF","address":"3601 Deer Hill Road, Lafayette CA 94549","entries":"3481","exits":"3616","coordinates":[-122.12351,37.893394]},
{"name":"Lafayette (LAFY)","code":"LF","address":"3601 Deer Hill Road, Lafayette CA 94549","entries":"3481","exits":"3616","coordinates":[-122.12352,37.893394]},
{"name":"Lafayette (LAFY)","code":"LF","address":"3601 Deer Hill Road, Lafayette CA 94549","entries":"3481","exits":"3616","coordinates":[-122.12353,37.893394]},
{"name":"Lafayette (LAFY)","code":"LF","address":"3601 Deer Hill Road, Lafayette CA 94549","entries":"3481","exits":"3616","coordinates":[-122.12354,37.893394]},
{"name":"Lafayette (LAFY)","code":"LF","address":"3601 Deer Hill Road, Lafayette CA 94549","entries":"3481","exits":"3616","coordinates":[-122.12355,37.893394]},
{"name":"Lafayette (LAFY)","code":"LF","address":"3601 Deer Hill Road, Lafayette CA 94549","entries":"3481","exits":"3616","coordinates":[-122.12356,37.893394]},
{"name":"Lafayette (LAFY)","code":"LF","address":"3601 Deer Hill Road, Lafayette CA 94549","entries":"3481","exits":"3616","coordinates":[-122.12357,37.893394]},
{"name":"Lafayette (LAFY)","code":"LF","address":"3601 Deer Hill Road, Lafayette CA 94549","entries":"3481","exits":"3616","coordinates":[-122.12358,37.893394]},
{"name":"Lafayette (LAFY)","code":"LF","address":"3601 Deer Hill Road, Lafayette CA 94549","entries":"3481","exits":"3616","coordinates":[-122.12359,37.893394]},
{"name":"Lafayette (LAFY)","code":"LF","address":"3601 Deer Hill Road, Lafayette CA 94549","entries":"3481","exits":"3616","coordinates":[-122.12360,37.893394]},
{"name":"Lafayette (LAFY)","code":"LF","address":"3601 Deer Hill Road, Lafayette CA 94549","entries":"3481","exits":"3616","coordinates":[-122.12361,37.893394]},
{"name":"Lafayette (LAFY)","code":"LF","address":"3601 Deer Hill Road, Lafayette CA 94549","entries":"3481","exits":"3616","coordinates":[-122.12362,37.893394]},
{"name":"Lafayette (LAFY)","code":"LF","address":"3601 Deer Hill Road, Lafayette CA 94549","entries":"3481","exits":"3616","coordinates":[-122.12363,37.893394]},
{"name":"Lafayette (LAFY)","code":"LF","address":"3601 Deer Hill Road, Lafayette CA 94549","entries":"3481","exits":"3616","coordinates":[-122.12364,37.893394]},
{"name":"Lafayette (LAFY)","code":"LF","address":"3601 Deer Hill Road, Lafayette CA 94549","entries":"3481","exits":"3616","coordinates":[-122.12365,37.893394]},
{"name":"Lafayette (LAFY)","code":"LF","address":"3601 Deer Hill Road, Lafayette CA 94549","entries":"3481","exits":"3616","coordinates":[-122.12366,37.893394]},
{"name":"Lafayette (LAFY)","code":"LF","address":"3601 Deer Hill Road, Lafayette CA 94549","entries":"3481","exits":"3616","coordinates":[-122.12367,37.893394]},
{"name":"Lafayette (LAFY)","code":"LF","address":"3601 Deer Hill Road, Lafayette CA 94549","entries":"3481","exits":"3616","coordinates":[-122.12368,37.893394]},
{"name":"Lafayette (LAFY)","code":"LF","address":"3601 Deer Hill Road, Lafayette CA 94549","entries":"3481","exits":"3616","coordinates":[-122.12369,37.893394]},
{"name":"Lafayette (LAFY)","code":"LF","address":"3601 Deer Hill Road, Lafayette CA 94549","entries":"3481","exits":"3616","coordinates":[-122.12370,37.893394]},
{"name":"Lafayette (LAFY)","code":"LF","address":"3601 Deer Hill Road, Lafayette CA 94549","entries":"3481","exits":"3616","coordinates":[-122.12371,37.893394]},
{"name":"Lafayette (LAFY)","code":"LF","address":"3601 Deer Hill Road, Lafayette CA 94549","entries":"3481","exits":"3616","coordinates":[-122.12372,37.893394]},
{"name":"Lafayette (LAFY)","code":"LF","address":"3601 Deer Hill Road, Lafayette CA 94549","entries":"3481","exits":"3616","coordinates":[-122.12373,37.893394]},
{"name":"Lafayette (LAFY)","code":"LF","address":"3601 Deer Hill Road, Lafayette CA 94549","entries":"3481","exits":"3616","coordinates":[-122.12374,37.893394]},
{"name":"Lafayette (LAFY)","code":"LF","address":"3601 Deer Hill Road, Lafayette CA 94549","entries":"3481","exits":"3616","coordinates":[-122.12375,37.893394]},
{"name":"Lafayette (LAFY)","code":"LF","address":"3601 Deer Hill Road, Lafayette CA 94549","entries":"3481","exits":"3616","coordinates":[-122.12376,37.893394]},
{"name":"Lafayette (LAFY)","code":"LF","address":"3601 Deer Hill Road, Lafayette CA 94549","entries":"3481","exits":"3616","coordinates":[-122.12377,37.893394]},
{"name":"Lafayette (LAFY)","code":"LF","address":"3601 Deer Hill Road, Lafayette CA 94549","entries":"3481","exits":"3616","coordinates":[-122.12378,37.893394]},
{"name":"Lafayette (LAFY)","code":"LF","address":"3601 Deer Hill Road, Lafayette CA 94549","entries":"3481","exits":"3616","coordinates":[-122.12379,37.893394]},
{"name":"Lafayette (LAFY)","code":"LF","address":"3601 Deer Hill Road, Lafayette CA 94549","entries":"3481","exits":"3616","coordinates":[-122.12380,37.893394]},
{"name":"Lafayette (LAFY)","code":"LF","address":"3601 Deer Hill Road, Lafayette CA 94549","entries":"3481","exits":"3616","coordinates":[-122.12381,37.893394]},
{"name":"Lafayette (LAFY)","code":"LF","address":"3601 Deer Hill Road, Lafayette CA 94549","entries":"3481","exits":"3616","coordinates":[-122.12382,37.893394]},
{"name":"Lafayette (LAFY)","code":"LF","address":"3601 Deer Hill Road, Lafayette CA 94549","entries":"3481","exits":"3616","coordinates":[-122.12383,37.893394]},
{"name":"Lafayette (LAFY)","code":"LF","address":"3601 Deer Hill Road, Lafayette CA 94549","entries":"3481","exits":"3616","coordinates":[-122.12384,37.893394]},
{"name":"Lafayette (LAFY)","code":"LF","address":"3601 Deer Hill Road, Lafayette CA 94549","entries":"3481","exits":"3616","coordinates":[-122.12385,37.893394]},
{"name":"Lafayette (LAFY)","code":"LF","address":"3601 Deer Hill Road, Lafayette CA 94549","entries":"3481","exits":"3616","coordinates":[-122.12386,37.893394]},
{"name":"Lafayette (LAFY)","code":"LF","address":"3601 Deer Hill Road, Lafayette CA 94549","entries":"3481","exits":"3616","coordinates":[-122.12387,37.893394]},
{"name":"Lafayette (LAFY)","code":"LF","address":"3601 Deer Hill Road, Lafayette CA 94549","entries":"3481","exits":"3616","coordinates":[-122.12388,37.893394]},
{"name":"Lafayette (LAFY)","code":"LF","address":"3601 Deer Hill Road, Lafayette CA 94549","entries":"3481","exits":"3616","coordinates":[-122.12389,37.893394]},
{"name":"Lafayette (LAFY)","code":"LF","address":"3601 Deer Hill Road, Lafayette CA 94549","entries":"3481","exits":"3616","coordinates":[-122.12390,37.893394]},
{"name":"Lafayette (LAFY)","code":"LF","address":"3601 Deer Hill Road, Lafayette CA 94549","entries":"3481","exits":"3616","coordinates":[-122.12391,37.893394]},
{"name":"Lafayette (LAFY)","code":"LF","address":"3601 Deer Hill Road, Lafayette CA 94549","entries":"3481","exits":"3616","coordinates":[-122.12392,37.893394]},
{"name":"Lafayette (LAFY)","code":"LF","address":"3601 Deer Hill Road, Lafayette CA 94549","entries":"3481","exits":"3616","coordinates":[-122.12393,37.893394]},
{"name":"Lafayette (LAFY)","code":"LF","address":"3601 Deer Hill Road, Lafayette CA 94549","entries":"3481","exits":"3616","coordinates":[-122.12394,37.893394]},
{"name":"Lafayette (LAFY)","code":"LF","address":"3601 Deer Hill Road, Lafayette CA 94549","entries":"3481","exits":"3616","coordinates":[-122.12395,37.893394]},
{"name":"Lafayette (LAFY)","code":"LF","address":"3601 Deer Hill Road, Lafayette CA 94549","entries":"3481","exits":"3616","coordinates":[-122.12396,37.893394]},
{"name":"Lafayette (LAFY)","code":"LF","address":"3601 Deer Hill Road, Lafayette CA 94549","entries":"3481","exits":"3616","coordinates":[-122.12397,37.893394]},
{"name":"Lafayette (LAFY)","code":"LF","address":"3601 Deer Hill Road, Lafayette CA 94549","entries":"3481","exits":"3616","coordinates":[-122.12398,37.893394]},
{"name":"Lafayette (LAFY)","code":"LF","address":"3601 Deer Hill Road, Lafayette CA 94549","entries":"3481","exits":"3616","coordinates":[-122.12399,37.893394]},
{"name":"Lafayette (LAFY)","code":"LF","address":"3601 Deer Hill Road, Lafayette CA 94549","entries":"3481","exits":"3616","coordinates":[-122.12400,37.893394]},
{"name":"Lafayette (LAFY)","code":"LF","address":"3601 Deer Hill Road, Lafayette CA 94549","entries":"3481","exits":"3616","coordinates":[-122.12401,37.893394]},
{"name":"Lafayette (LAFY)","code":"LF","address":"3601 Deer Hill Road, Lafayette CA 94549","entries":"3481","exits":"3616","coordinates":[-122.12402,37.893394]},
{"name":"Lafayette (LAFY)","code":"LF","address":"3601 Deer Hill Road, Lafayette CA 94549","entries":"3481","exits":"3616","coordinates":[-122.12403,37.893394]},
{"name":"Lafayette (LAFY)","code":"LF","address":"3601 Deer Hill Road, Lafayette CA 94549","entries":"3481","exits":"3616","coordinates":[-122.12404,37.893394]},
{"name":"Lafayette (LAFY)","code":"LF","address":"3601 Deer Hill Road, Lafayette CA 94549","entries":"3481","exits":"3616","coordinates":[-122.12405,37.893394]},
{"name":"Lafayette (LAFY)","code":"LF","address":"3601 Deer Hill Road, Lafayette CA 94549","entries":"3481","exits":"3616","coordinates":[-122.12406,37.893394]},
{"name":"Lafayette (LAFY)","code":"LF","address":"3601 Deer Hill Road, Lafayette CA 94549","entries":"3481","exits":"3616","coordinates":[-122.12407,37.893394]},
{"name":"Lafayette (LAFY)","code":"LF","address":"3601 Deer Hill Road, Lafayette CA 94549","entries":"3481","exits":"3616","coordinates":[-122.12408,37.893394]},
{"name":"Lafayette (LAFY)","code":"LF","address":"3601 Deer Hill Road, Lafayette CA 94549","entries":"3481","exits":"3616","coordinates":[-122.12409,37.893394]},
{"name":"Lafayette (LAFY)","code":"LF","address":"3601 Deer Hill Road, Lafayette CA 94549","entries":"3481","exits":"3616","coordinates":[-122.12410,37.893394]},
{"name":"Lafayette (LAFY)","code":"LF","address":"3601 Deer Hill Road, Lafayette CA 94549","entries":"3481","exits":"3616","coordinates":[-122.12411,37.893394]},
{"name":"Lafayette (LAFY)","code":"LF","address":"3601 Deer Hill Road, Lafayette CA 94549","entries":"3481","exits":"3616","coordinates":[-122.12412,37.893394]},
{"name":"Lafayette (LAFY)","code":"LF","address":"3601 Deer Hill Road, Lafayette CA 94549","entries":"3481","exits":"3616","coordinates":[-122.12413,37.893394]},
{"name":"Lafayette (LAFY)","code":"LF","address":"3601 Deer Hill Road, Lafayette CA 94549","entries":"3481","exits":"3616","coordinates":[-122.12414,37.893394]},
{"name":"Lafayette (LAFY)","code":"LF","address":"3601 Deer Hill Road, Lafayette CA 94549","entries":"3481","exits":"3616","coordinates":[-122.12415,37.893394]},
{"name":"Lafayette (LAFY)","code":"LF","address":"3601 Deer Hill Road, Lafayette CA 94549","entries":"3481","exits":"3616","coordinates":[-122.12416,37.893394]},
{"name":"Lafayette (LAFY)","code":"LF","address":"3601 Deer Hill Road, Lafayette CA 94549","entries":"3481","exits":"3616","coordinates":[-122.12417,37.893394]},
{"name":"Lafayette (LAFY)","code":"LF","address":"3601 Deer Hill Road, Lafayette CA 94549","entries":"3481","exits":"3616","coordinates":[-122.12418,37.893394]},
{"name":"Lafayette (LAFY)","code":"LF","address":"3601 Deer Hill Road, Lafayette CA 94549","entries":"3481","exits":"3616","coordinates":[-122.12419,37.893394]},
{"name":"Lafayette (LAFY)","code":"LF","address":"3601 Deer Hill Road, Lafayette CA 94549","entries":"3481","exits":"3616","coordinates":[-122.12420,37.893394]},
{"name":"Lafayette (LAFY)","code":"LF","address":"3601 Deer Hill Road, Lafayette CA 94549","entries":"3481","exits":"3616","coordinates":[-122.12421,37.893394]},
{"name":"Lafayette (LAFY)","code":"LF","address":"3601 Deer Hill Road, Lafayette CA 94549","entries":"3481","exits":"3616","coordinates":[-122.12422,37.893394]},
{"name":"Lafayette (LAFY)","code":"LF","address":"3601 Deer Hill Road, Lafayette CA 94549","entries":"3481","exits":"3616","coordinates":[-122.12423,37.893394]},
{"name":"Lafayette (LAFY)","code":"LF","address":"3601 Deer Hill Road, Lafayette CA 94549","entries":"3481","exits":"3616","coordinates":[-122.12424,37.893394]},
{"name":"Lafayette (LAFY)","code":"LF","address":"3601 Deer Hill Road, Lafayette CA 94549","entries":"3481","exits":"3616","coordinates":[-122.12425,37.893394]},
{"name":"Lafayette (LAFY)","code":"LF","address":"3601 Deer Hill Road, Lafayette CA 94549","entries":"3481","exits":"3616","coordinates":[-122.12426,37.893394]},
{"name":"Lafayette (LAFY)","code":"LF","address":"3601 Deer Hill Road, Lafayette CA 94549","entries":"3481","exits":"3616","coordinates":[-122.12427,37.893394]},
{"name":"Lafayette (LAFY)","code":"LF","address":"3601 Deer Hill Road, Lafayette CA 94549","entries":"3481","exits":"3616","coordinates":[-122.12428,37.893394]},
{"name":"Lafayette (LAFY)","code":"LF","address":"3601 Deer Hill Road, Lafayette CA 94549","entries":"3481","exits":"3616","coordinates":[-122.12429,37.893394]},
{"name":"Lafayette (LAFY)","code":"LF","address":"3601 Deer Hill Road, Lafayette CA 94549","entries":"3481","exits":"3616","coordinates":[-122.12430,37.893394]},
{"name":"Lafayette (LAFY)","code":"LF","address":"3601 Deer Hill Road, Lafayette CA 94549","entries":"3481","exits":"3616","coordinates":[-122.12431,37.893394]},
{"name":"Lafayette (LAFY)","code":"LF","address":"3601 Deer Hill Road, Lafayette CA 94549","entries":"3481","exits":"3616","coordinates":[-122.12432,37.893394]},
{"name":"Lafayette (LAFY)","code":"LF","address":"3601 Deer Hill Road, Lafayette CA 94549","entries":"3481","exits":"3616","coordinates":[-122.12433,37.893394]},
{"name":"Lafayette (LAFY)","code":"LF","address":"3601 Deer Hill Road, Lafayette CA 94549","entries":"3481","exits":"3616","coordinates":[-122.12434,37.893394]},
{"name":"Lafayette (LAFY)","code":"LF","address":"3601 Deer Hill Road, Lafayette CA 94549","entries":"3481","exits":"3616","coordinates":[-122.12435,37.893394]},
{"name":"Lafayette (LAFY)","code":"LF","address":"3601 Deer Hill Road, Lafayette CA 94549","entries":"3481","exits":"3616","coordinates":[-122.12436,37.893394]},
{"name":"Lafayette (LAFY)","code":"LF","address":"3601 Deer Hill Road, Lafayette CA 94549","entries":"3481","exits":"3616","coordinates":[-122.12437,37.893394]},
{"name":"Lafayette (LAFY)","code":"LF","address":"3601 Deer Hill Road, Lafayette CA 94549","entries":"3481","exits":"3616","coordinates":[-122.12438,37.893394]},
{"name":"Lafayette (LAFY)","code":"LF","address":"3601 Deer Hill Road, Lafayette CA 94549","entries":"3481","exits":"3616","coordinates":[-122.12439,37.893394]},
{"name":"Lafayette (LAFY)","code":"LF","address":"3601 Deer Hill Road, Lafayette CA 94549","entries":"3481","exits":"3616","coordinates":[-122.12440,37.893394]},
{"name":"Lafayette (LAFY)","code":"LF","address":"3601 Deer Hill Road, Lafayette CA 94549","entries":"3481","exits":"3616","coordinates":[-122.12441,37.893394]},
{"name":"Lafayette (LAFY)","code":"LF","address":"3601 Deer Hill Road, Lafayette CA 94549","entries":"3481","exits":"3616","coordinates":[-122.12442,37.893394]},
{"name":"Lafayette (LAFY)","code":"LF","address":"3601 Deer Hill Road, Lafayette CA 94549","entries":"3481","exits":"3616","coordinates":[-122.12443,37.893394]},
{"name":"Lafayette (LAFY)","code":"LF","address":"3601 Deer Hill Road, Lafayette CA 94549","entries":"3481","exits":"3616","coordinates":[-122.12444,37.893394]},
{"name":"Lafayette (LAFY)","code":"LF","address":"3601 Deer Hill Road, Lafayette CA 94549","entries":"3481","exits":"3616","coordinates":[-122.12445,37.893394]},
{"name":"Lafayette (LAFY)","code":"LF","address":"3601 Deer Hill Road, Lafayette CA 94549","entries":"3481","exits":"3616","coordinates":[-122.12446,37.893394]},
{"name":"Lafayette (LAFY)","code":"LF","address":"3601 Deer Hill Road, Lafayette CA 94549","entries":"3481","exits":"3616","coordinates":[-122.12447,37.893394]},
{"name":"Lafayette (LAFY)","code":"LF","address":"3601 Deer Hill Road, Lafayette CA 94549","entries":"3481","exits":"3616","coordinates":[-122.12448,37.893394]},
{"name":"Lafayette (LAFY)","code":"LF","address":"3601 Deer Hill Road, Lafayette CA 94549","entries":"3481","exits":"3616","coordinates":[-122.12449,37.893394]},
{"name":"Lafayette (LAFY)","code":"LF","address":"3601 Deer Hill Road, Lafayette CA 94549","entries":"3481","exits":"3616","coordinates":[-122.12450,37.893394]},
{"name":"Lafayette (LAFY)","code":"LF","address":"3601 Deer Hill Road, Lafayette CA 94549","entries":"3481","exits":"3616","coordinates":[-122.12451,37.893394]},
{"name":"Lafayette (LAFY)","code":"LF","address":"3601 Deer Hill Road, Lafayette CA 94549","entries":"3481","exits":"3616","coordinates":[-122.12452,37.893394]},
{"name":"Lafayette (LAFY)","code":"LF","address":"3601 Deer Hill Road, Lafayette CA 94549","entries":"3481","exits":"3616","coordinates":[-122.12453,37.893394]},
{"name":"Lafayette (LAFY)","code":"LF","address":"3601 Deer Hill Road, Lafayette CA 94549","entries":"3481","exits":"3616","coordinates":[-122.12454,37.893394]},
{"name":"Lafayette (LAFY)","code":"LF","address":"3601 Deer Hill Road, Lafayette CA 94549","entries":"3481","exits":"3616","coordinates":[-122.12455,37.893394]},
{"name":"Lafayette (LAFY)","code":"LF","address":"3601 Deer Hill Road, Lafayette CA 94549","entries":"3481","exits":"3616","coordinates":[-122.12456,37.893394]},
{"name":"Lafayette (LAFY)","code":"LF","address":"3601 Deer Hill Road, Lafayette CA 94549","entries":"3481","exits":"3616","coordinates":[-122.12457,37.893394]},
{"name":"Lafayette (LAFY)","code":"LF","address":"3601 Deer Hill Road, Lafayette CA 94549","entries":"3481","exits":"3616","coordinates":[-122.12458,37.893394]},
{"name":"Lafayette (LAFY)","code":"LF","address":"3601 Deer Hill Road, Lafayette CA 94549","entries":"3481","exits":"3616","coordinates":[-122.12459,37.893394]},
{"name":"Lafayette (LAFY)","code":"LF","address":"3601 Deer Hill Road, Lafayette CA 94549","entries":"3481","exits":"3616","coordinates":[-122.12460,37.893394]},
{"name":"Lafayette (LAFY)","code":"LF","address":"3601 Deer Hill Road, Lafayette CA 94549","entries":"3481","exits":"3616","coordinates":[-122.12461,37.893394]},
{"name":"Lafayette (LAFY)","code":"LF","address":"3601 Deer Hill Road, Lafayette CA 94549","entries":"3481","exits":"3616","coordinates":[-122.12462,37.893394]},
{"name":"Lafayette (LAFY)","code":"LF","address":"3601 Deer Hill Road, Lafayette CA 94549","entries":"3481","exits":"3616","coordinates":[-122.12463,37.893394]},
{"name":"Lafayette (LAFY)","code":"LF","address":"3601 Deer Hill Road, Lafayette CA 94549","entries":"3481","exits":"3616","coordinates":[-122.12464,37.893394]},
{"name":"Lafayette (LAFY)","code":"LF","address":"3601 Deer Hill Road, Lafayette CA 94549","entries":"3481","exits":"3616","coordinates":[-122.12465,37.893394]},
{"name":"Lafayette (LAFY)","code":"LF","address":"3601 Deer Hill Road, Lafayette CA 94549","entries":"3481","exits":"3616","coordinates":[-122.12466,37.893394]},
{"name":"Lafayette (LAFY)","code":"LF","address":"3601 Deer Hill Road, Lafayette CA 94549","entries":"3481","exits":"3616","coordinates":[-122.12467,37.893394]},
{"name":"Lafayette (LAFY)","code":"LF","address":"3601 Deer Hill Road, Lafayette CA 94549","entries":"3481","exits":"3616","coordinates":[-122.12468,37.893394]},
{"name":"Lafayette (LAFY)","code":"LF","address":"3601 Deer Hill Road, Lafayette CA 94549","entries":"3481","exits":"3616","coordinates":[-122.12469,37.893394]},
{"name":"Lafayette (LAFY)","code":"LF","address":"3601 Deer Hill Road, Lafayette CA 94549","entries":"3481","exits":"3616","coordinates":[-122.12470,37.893394]},
{"name":"Lafayette (LAFY)","code":"LF","address":"3601 Deer Hill Road, Lafayette CA 94549","entries":"3481","exits":"3616","coordinates":[-122.12471,37.893394]},
{"name":"Lafayette (LAFY)","code":"LF","address":"3601 Deer Hill Road, Lafayette CA 94549","entries":"3481","exits":"3616","coordinates":[-122.12472,37.893394]},
{"name":"Lafayette (LAFY)","code":"LF","address":"3601 Deer Hill Road, Lafayette CA 94549","entries":"3481","exits":"3616","coordinates":[-122.12473,37.893394]},
{"name":"Lafayette (LAFY)","code":"LF","address":"3601 Deer Hill Road, Lafayette CA 94549","entries":"3481","exits":"3616","coordinates":[-122.12474,37.893394]},
{"name":"Lafayette (LAFY)","code":"LF","address":"3601 Deer Hill Road, Lafayette CA 94549","entries":"3481","exits":"3616","coordinates":[-122.12475,37.893394]},
{"name":"Lafayette (LAFY)","code":"LF","address":"3601 Deer Hill Road, Lafayette CA 94549","entries":"3481","exits":"3616","coordinates":[-122.12476,37.893394]},
{"name":"Lafayette (LAFY)","code":"LF","address":"3601 Deer Hill Road, Lafayette CA 94549","entries":"3481","exits":"3616","coordinates":[-122.12477,37.893394]},
{"name":"Lafayette (LAFY)","code":"LF","address":"3601 Deer Hill Road, Lafayette CA 94549","entries":"3481","exits":"3616","coordinates":[-122.12478,37.893394]},
{"name":"Lafayette (LAFY)","code":"LF","address":"3601 Deer Hill Road, Lafayette CA 94549","entries":"3481","exits":"3616","coordinates":[-122.12479,37.893394]},
{"name":"Lafayette (LAFY)","code":"LF","address":"3601 Deer Hill Road, Lafayette CA 94549","entries":"3481","exits":"3616","coordinates":[-122.12480,37.893394]},
{"name":"Lafayette (LAFY)","code":"LF","address":"3601 Deer Hill Road, Lafayette CA 94549","entries":"3481","exits":"3616","coordinates":[-122.12481,37.893394]},
{"name":"Lafayette (LAFY)","code":"LF","address":"3601 Deer Hill Road, Lafayette CA 94549","entries":"3481","exits":"3616","coordinates":[-122.12482,37.893394]},
{"name":"Lafayette (LAFY)","code":"LF","address":"3601 Deer Hill Road, Lafayette CA 94549","entries":"3481","exits":"3616","coordinates":[-122.12483,37.893394]},
{"name":"Lafayette (LAFY)","code":"LF","address":"3601 Deer Hill Road, Lafayette CA 94549","entries":"3481","exits":"3616","coordinates":[-122.12484,37.893394]},
{"name":"Lafayette (LAFY)","code":"LF","address":"3601 Deer Hill Road, Lafayette CA 94549","entries":"3481","exits":"3616","coordinates":[-122.12485,37.893394]},
{"name":"Lafayette (LAFY)","code":"LF","address":"3601 Deer Hill Road, Lafayette CA 94549","entries":"3481","exits":"3616","coordinates":[-122.12486,37.893394]},
{"name":"Lafayette (LAFY)","code":"LF","address":"3601 Deer Hill Road, Lafayette CA 94549","entries":"3481","exits":"3616","coordinates":[-122.12487,37.893394]},
{"name":"Lafayette (LAFY)","code":"LF","address":"3601 Deer Hill Road, Lafayette CA 94549","entries":"3481","exits":"3616","coordinates":[-122.12488,37.893394]},
{"name":"Lafayette (LAFY)","code":"LF","address":"3601 Deer Hill Road, Lafayette CA 94549","entries":"3481","exits":"3616","coordinates":[-122.12489,37.893394]},
{"name":"Lafayette (LAFY)","code":"LF","address":"3601 Deer Hill Road, Lafayette CA 94549","entries":"3481","exits":"3616","coordinates":[-122.12490,37.893394]},
{"name":"Lafayette (LAFY)","code":"LF","address":"3601 Deer Hill Road, Lafayette CA 94549","entries":"3481","exits":"3616","coordinates":[-122.12491,37.893394]},
{"name":"Lafayette (LAFY)","code":"LF","address":"3601 Deer Hill Road, Lafayette CA 94549","entries":"3481","exits":"3616","coordinates":[-122.12492,37.893394]},
{"name":"Lafayette (LAFY)","code":"LF","address":"3601 Deer Hill Road, Lafayette CA 94549","entries":"3481","exits":"3616","coordinates":[-122.12493,37.893394]},
{"name":"Lafayette (LAFY)","code":"LF","address":"3601 Deer Hill Road, Lafayette CA 94549","entries":"3481","exits":"3616","coordinates":[-122.12494,37.893394]},
{"name":"Lafayette (LAFY)","code":"LF","address":"3601 Deer Hill Road, Lafayette CA 94549","entries":"3481","exits":"3616","coordinates":[-122.12495,37.893394]},
{"name":"Lafayette (LAFY)","code":"LF","address":"3601 Deer Hill Road, Lafayette CA 94549","entries":"3481","exits":"3616","coordinates":[-122.12496,37.893394]},
{"name":"Lafayette (LAFY)","code":"LF","address":"3601 Deer Hill Road, Lafayette CA 94549","entries":"3481","exits":"3616","coordinates":[-122.12497,37.893394]},
{"name":"Lafayette (LAFY)","code":"LF","address":"3601 Deer Hill Road, Lafayette CA 94549","entries":"3481","exits":"3616","coordinates":[-122.12498,37.893394]},
{"name":"Lafayette (LAFY)","code":"LF","address":"3601 Deer Hill Road, Lafayette CA 94549","entries":"3481","exits":"3616","coordinates":[-122.12499,37.893394]},
{"name":"Lafayette (LAFY)","code":"LF","address":"3601 Deer Hill Road, Lafayette CA 94549","entries":"3481","exits":"3616","coordinates":[-122.12500,37.893394]},
{"name":"Lafayette (LAFY)","code":"LF","address":"3601 Deer Hill Road, Lafayette CA 94549","entries":"3481","exits":"3616","coordinates":[-122.12501,37.893394]},
{"name":"Lafayette (LAFY)","code":"LF","address":"3601 Deer Hill Road, Lafayette CA 94549","entries":"3481","exits":"3616","coordinates":[-122.12502,37.893394]},
{"name":"Lafayette (LAFY)","code":"LF","address":"3601 Deer Hill Road, Lafayette CA 94549","entries":"3481","exits":"3616","coordinates":[-122.12503,37.893394]},
{"name":"Lafayette (LAFY)","code":"LF","address":"3601 Deer Hill Road, Lafayette CA 94549","entries":"3481","exits":"3616","coordinates":[-122.12504,37.893394]},
{"name":"Lafayette (LAFY)","code":"LF","address":"3601 Deer Hill Road, Lafayette CA 94549","entries":"3481","exits":"3616","coordinates":[-122.12505,37.893394]},
{"name":"Lafayette (LAFY)","code":"LF","address":"3601 Deer Hill Road, Lafayette CA 94549","entries":"3481","exits":"3616","coordinates":[-122.12506,37.893394]},
{"name":"Lafayette (LAFY)","code":"LF","address":"3601 Deer Hill Road, Lafayette CA 94549","entries":"3481","exits":"3616","coordinates":[-122.12507,37.893394]},
{"name":"Lafayette (LAFY)","code":"LF","address":"3601 Deer Hill Road, Lafayette CA 94549","entries":"3481","exits":"3616","coordinates":[-122.12508,37.893394]},
{"name":"Lafayette (LAFY)","code":"LF","address":"3601 Deer Hill Road, Lafayette CA 94549","entries":"3481","exits":"3616","coordinates":[-122.12509,37.893394]},
{"name":"Lafayette (LAFY)","code":"LF","address":"3601 Deer Hill Road, Lafayette CA 94549","entries":"3481","exits":"3616","coordinates":[-122.12510,37.893394]},
{"name":"Lafayette (LAFY)","code":"LF","address":"3601 Deer Hill Road, Lafayette CA 94549","entries":"3481","exits":"3616","coordinates":[-122.12511,37.893394]},
{"name":"Lafayette (LAFY)","code":"LF","address":"3601 Deer Hill Road, Lafayette CA 94549","entries":"3481","exits":"3616","coordinates":[-122.12512,37.893394]},
{"name":"Lafayette (LAFY)","code":"LF","address":"3601 Deer Hill Road, Lafayette CA 94549","entries":"3481","exits":"3616","coordinates":[-122.12513,37.893394]},
{"name":"Lafayette (LAFY)","code":"LF","address":"3601 Deer Hill Road, Lafayette CA 94549","entries":"3481","exits":"3616","coordinates":[-122.12514,37.893394]},
{"name":"Lafayette (LAFY)","code":"LF","address":"3601 Deer Hill Road, Lafayette CA 94549","entries":"3481","exits":"3616","coordinates":[-122.12515,37.893394]},
{"name":"Lafayette (LAFY)","code":"LF","address":"3601 Deer Hill Road, Lafayette CA 94549","entries":"3481","exits":"3616","coordinates":[-122.12516,37.893394]},
{"name":"Lafayette (LAFY)","code":"LF","address":"3601 Deer Hill Road, Lafayette CA 94549","entries":"3481","exits":"3616","coordinates":[-122.12517,37.893394]},
{"name":"Lafayette (LAFY)","code":"LF","address":"3601 Deer Hill Road, Lafayette CA 94549","entries":"3481","exits":"3616","coordinates":[-122.12518,37.893394]},
{"name":"Lafayette (LAFY)","code":"LF","address":"3601 Deer Hill Road, Lafayette CA 94549","entries":"3481","exits":"3616","coordinates":[-122.12519,37.893394]},
{"name":"Lafayette (LAFY)","code":"LF","address":"3601 Deer Hill Road, Lafayette CA 94549","entries":"3481","exits":"3616","coordinates":[-122.12520,37.893394]},
{"name":"Lafayette (LAFY)","code":"LF","address":"3601 Deer Hill Road, Lafayette CA 94549","entries":"3481","exits":"3616","coordinates":[-122.12521,37.893394]},
{"name":"Lafayette (LAFY)","code":"LF","address":"3601 Deer Hill Road, Lafayette CA 94549","entries":"3481","exits":"3616","coordinates":[-122.12522,37.893394]},
{"name":"Lafayette (LAFY)","code":"LF","address":"3601 Deer Hill Road, Lafayette CA 94549","entries":"3481","exits":"3616","coordinates":[-122.12523,37.893394]},
{"name":"Lafayette (LAFY)","code":"LF","address":"3601 Deer Hill Road, Lafayette CA 94549","entries":"3481","exits":"3616","coordinates":[-122.12524,37.893394]},
{"name":"Lafayette (LAFY)","code":"LF","address":"3601 Deer Hill Road, Lafayette CA 94549","entries":"3481","exits":"3616","coordinates":[-122.12525,37.893394]},
{"name":"Lafayette (LAFY)","code":"LF","address":"3601 Deer Hill Road, Lafayette CA 94549","entries":"3481","exits":"3616","coordinates":[-122.12526,37.893394]},
{"name":"Lafayette (LAFY)","code":"LF","address":"3601 Deer Hill Road, Lafayette CA 94549","entries":"3481","exits":"3616","coordinates":[-122.12527,37.893394]},
{"name":"Lafayette (LAFY)","code":"LF","address":"3601 Deer Hill Road, Lafayette CA 94549","entries":"3481","exits":"3616","coordinates":[-122.12528,37.893394]},
{"name":"Lafayette (LAFY)","code":"LF","address":"3601 Deer Hill Road, Lafayette CA 94549","entries":"3481","exits":"3616","coordinates":[-122.12529,37.893394]},
{"name":"Lafayette (LAFY)","code":"LF","address":"3601 Deer Hill Road, Lafayette CA 94549","entries":"3481","exits":"3616","coordinates":[-122.12530,37.893394]},
{"name":"Lafayette (LAFY)","code":"LF","address":"3601 Deer Hill Road, Lafayette CA 94549","entries":"3481","exits":"3616","coordinates":[-122.12531,37.893394]},
{"name":"Lafayette (LAFY)","code":"LF","address":"3601 Deer Hill Road, Lafayette CA 94549","entries":"3481","exits":"3616","coordinates":[-122.12532,37.893394]},
{"name":"Lafayette (LAFY)","code":"LF","address":"3601 Deer Hill Road, Lafayette CA 94549","entries":"3481","exits":"3616","coordinates":[-122.12533,37.893394]},
{"name":"Lafayette (LAFY)","code":"LF","address":"3601 Deer Hill Road, Lafayette CA 94549","entries":"3481","exits":"3616","coordinates":[-122.12534,37.893394]},
{"name":"Lafayette (LAFY)","code":"LF","address":"3601 Deer Hill Road, Lafayette CA 94549","entries":"3481","exits":"3616","coordinates":[-122.12535,37.893394]},
{"name":"Lafayette (LAFY)","code":"LF","address":"3601 Deer Hill Road, Lafayette CA 94549","entries":"3481","exits":"3616","coordinates":[-122.12536,37.893394]},
{"name":"Lafayette (LAFY)","code":"LF","address":"3601 Deer Hill Road, Lafayette CA 94549","entries":"3481","exits":"3616","coordinates":[-122.12537,37.893394]},
{"name":"Lafayette (LAFY)","code":"LF","address":"3601 Deer Hill Road, Lafayette CA 94549","entries":"3481","exits":"3616","coordinates":[-122.12538,37.893394]},
{"name":"Lafayette (LAFY)","code":"LF","address":"3601 Deer Hill Road, Lafayette CA 94549","entries":"3481","exits":"3616","coordinates":[-122.12539,37.893394]},
{"name":"Lafayette (LAFY)","code":"LF","address":"3601 Deer Hill Road, Lafayette CA 94549","entries":"3481","exits":"3616","coordinates":[-122.12540,37.893394]},
{"name":"Lafayette (LAFY)","code":"LF","address":"3601 Deer Hill Road, Lafayette CA 94549","entries":"3481","exits":"3616","coordinates":[-122.12541,37.893394]},
{"name":"Lafayette (LAFY)","code":"LF","address":"3601 Deer Hill Road, Lafayette CA 94549","entries":"3481","exits":"3616","coordinates":[-122.12542,37.893394]},
{"name":"Lafayette (LAFY)","code":"LF","address":"3601 Deer Hill Road, Lafayette CA 94549","entries":"3481","exits":"3616","coordinates":[-122.12543,37.893394]},
{"name":"Lafayette (LAFY)","code":"LF","address":"3601 Deer Hill Road, Lafayette CA 94549","entries":"3481","exits":"3616","coordinates":[-122.12544,37.893394]},
{"name":"Lafayette (LAFY)","code":"LF","address":"3601 Deer Hill Road, Lafayette CA 94549","entries":"3481","exits":"3616","coordinates":[-122.12545,37.893394]},
{"name":"Lafayette (LAFY)","code":"LF","address":"3601 Deer Hill Road, Lafayette CA 94549","entries":"3481","exits":"3616","coordinates":[-122.12546,37.893394]},
{"name":"Lafayette (LAFY)","code":"LF","address":"3601 Deer Hill Road, Lafayette CA 94549","entries":"3481","exits":"3616","coordinates":[-122.12547,37.893394]},
{"name":"Lafayette (LAFY)","code":"LF","address":"3601 Deer Hill Road, Lafayette CA 94549","entries":"3481","exits":"3616","coordinates":[-122.12548,37.893394]},
{"name":"Lafayette (LAFY)","code":"LF","address":"3601 Deer Hill Road, Lafayette CA 94549","entries":"3481","exits":"3616","coordinates":[-122.12549,37.893394]},
{"name":"Lafayette (LAFY)","code":"LF","address":"3601 Deer Hill Road, Lafayette CA 94549","entries":"3481","exits":"3616","coordinates":[-122.12550,37.893394]},
{"name":"Lafayette (LAFY)","code":"LF","address":"3601 Deer Hill Road, Lafayette CA 94549","entries":"3481","exits":"3616","coordinates":[-122.12551,37.893394]},
{"name":"Lafayette (LAFY)","code":"LF","address":"3601 Deer Hill Road, Lafayette CA 94549","entries":"3481","exits":"3616","coordinates":[-122.12552,37.893394]},
{"name":"Lafayette (LAFY)","code":"LF","address":"3601 Deer Hill Road, Lafayette CA 94549","entries":"3481","exits":"3616","coordinates":[-122.12553,37.893394]},
{"name":"Lafayette (LAFY)","code":"LF","address":"3601 Deer Hill Road, Lafayette CA 94549","entries":"3481","exits":"3616","coordinates":[-122.12554,37.893394]},
{"name":"Lafayette (LAFY)","code":"LF","address":"3601 Deer Hill Road, Lafayette CA 94549","entries":"3481","exits":"3616","coordinates":[-122.12555,37.893394]},
{"name":"Lafayette (LAFY)","code":"LF","address":"3601 Deer Hill Road, Lafayette CA 94549","entries":"3481","exits":"3616","coordinates":[-122.12556,37.893394]},
{"name":"Lafayette (LAFY)","code":"LF","address":"3601 Deer Hill Road, Lafayette CA 94549","entries":"3481","exits":"3616","coordinates":[-122.12557,37.893394]},
{"name":"Lafayette (LAFY)","code":"LF","address":"3601 Deer Hill Road, Lafayette CA 94549","entries":"3481","exits":"3616","coordinates":[-122.12558,37.893394]},
{"name":"Lafayette (LAFY)","code":"LF","address":"3601 Deer Hill Road, Lafayette CA 94549","entries":"3481","exits":"3616","coordinates":[-122.12559,37.893394]},
{"name":"Lafayette (LAFY)","code":"LF","address":"3601 Deer Hill Road, Lafayette CA 94549","entries":"3481","exits":"3616","coordinates":[-122.12560,37.893394]},
{"name":"Lafayette (LAFY)","code":"LF","address":"3601 Deer Hill Road, Lafayette CA 94549","entries":"3481","exits":"3616","coordinates":[-122.12561,37.893394]},
{"name":"Lafayette (LAFY)","code":"LF","address":"3601 Deer Hill Road, Lafayette CA 94549","entries":"3481","exits":"3616","coordinates":[-122.12562,37.893394]},
{"name":"Lafayette (LAFY)","code":"LF","address":"3601 Deer Hill Road, Lafayette CA 94549","entries":"3481","exits":"3616","coordinates":[-122.12563,37.893394]},
{"name":"Lafayette (LAFY)","code":"LF","address":"3601 Deer Hill Road, Lafayette CA 94549","entries":"3481","exits":"3616","coordinates":[-122.12564,37.893394]},
{"name":"Lafayette (LAFY)","code":"LF","address":"3601 Deer Hill Road, Lafayette CA 94549","entries":"3481","exits":"3616","coordinates":[-122.12565,37.893394]},
{"name":"Lafayette (LAFY)","code":"LF","address":"3601 Deer Hill Road, Lafayette CA 94549","entries":"3481","exits":"3616","coordinates":[-122.12566,37.893394]},
{"name":"Lafayette (LAFY)","code":"LF","address":"3601 Deer Hill Road, Lafayette CA 94549","entries":"3481","exits":"3616","coordinates":[-122.12567,37.893394]},
{"name":"Lafayette (LAFY)","code":"LF","address":"3601 Deer Hill Road, Lafayette CA 94549","entries":"3481","exits":"3616","coordinates":[-122.12568,37.893394]},
{"name":"Lafayette (LAFY)","code":"LF","address":"3601 Deer Hill Road, Lafayette CA 94549","entries":"3481","exits":"3616","coordinates":[-122.12569,37.893394]},
{"name":"Lafayette (LAFY)","code":"LF","address":"3601 Deer Hill Road, Lafayette CA 94549","entries":"3481","exits":"3616","coordinates":[-122.12570,37.893394]},
{"name":"Lafayette (LAFY)","code":"LF","address":"3601 Deer Hill Road, Lafayette CA 94549","entries":"3481","exits":"3616","coordinates":[-122.12571,37.893394]},
{"name":"Lafayette (LAFY)","code":"LF","address":"3601 Deer Hill Road, Lafayette CA 94549","entries":"3481","exits":"3616","coordinates":[-122.12572,37.893394]},
{"name":"Lafayette (LAFY)","code":"LF","address":"3601 Deer Hill Road, Lafayette CA 94549","entries":"3481","exits":"3616","coordinates":[-122.12573,37.893394]},
{"name":"Lafayette (LAFY)","code":"LF","address":"3601 Deer Hill Road, Lafayette CA 94549","entries":"3481","exits":"3616","coordinates":[-122.12574,37.893394]},
{"name":"Lafayette (LAFY)","code":"LF","address":"3601 Deer Hill Road, Lafayette CA 94549","entries":"3481","exits":"3616","coordinates":[-122.12575,37.893394]},
{"name":"Lafayette (LAFY)","code":"LF","address":"3601 Deer Hill Road, Lafayette CA 94549","entries":"3481","exits":"3616","coordinates":[-122.12576,37.893394]},
{"name":"Lafayette (LAFY)","code":"LF","address":"3601 Deer Hill Road, Lafayette CA 94549","entries":"3481","exits":"3616","coordinates":[-122.12577,37.893394]},
{"name":"Lafayette (LAFY)","code":"LF","address":"3601 Deer Hill Road, Lafayette CA 94549","entries":"3481","exits":"3616","coordinates":[-122.12578,37.893394]},
{"name":"Lafayette (LAFY)","code":"LF","address":"3601 Deer Hill Road, Lafayette CA 94549","entries":"3481","exits":"3616","coordinates":[-122.12579,37.893394]},
{"name":"Lafayette (LAFY)","code":"LF","address":"3601 Deer Hill Road, Lafayette CA 94549","entries":"3481","exits":"3616","coordinates":[-122.12580,37.893394]},
{"name":"Lafayette (LAFY)","code":"LF","address":"3601 Deer Hill Road, Lafayette CA 94549","entries":"3481","exits":"3616","coordinates":[-122.12581,37.893394]},
{"name":"Lafayette (LAFY)","code":"LF","address":"3601 Deer Hill Road, Lafayette CA 94549","entries":"3481","exits":"3616","coordinates":[-122.12582,37.893394]},
{"name":"Lafayette (LAFY)","code":"LF","address":"3601 Deer Hill Road, Lafayette CA 94549","entries":"3481","exits":"3616","coordinates":[-122.12583,37.893394]},
{"name":"Lafayette (LAFY)","code":"LF","address":"3601 Deer Hill Road, Lafayette CA 94549","entries":"3481","exits":"3616","coordinates":[-122.12584,37.893394]},
{"name":"Lafayette (LAFY)","code":"LF","address":"3601 Deer Hill Road, Lafayette CA 94549","entries":"3481","exits":"3616","coordinates":[-122.12585,37.893394]},
{"name":"Lafayette (LAFY)","code":"LF","address":"3601 Deer Hill Road, Lafayette CA 94549","entries":"3481","exits":"3616","coordinates":[-122.12586,37.893394]},
{"name":"Lafayette (LAFY)","code":"LF","address":"3601 Deer Hill Road, Lafayette CA 94549","entries":"3481","exits":"3616","coordinates":[-122.12587,37.893394]},
{"name":"Lafayette (LAFY)","code":"LF","address":"3601 Deer Hill Road, Lafayette CA 94549","entries":"3481","exits":"3616","coordinates":[-122.12588,37.893394]},
{"name":"Lafayette (LAFY)","code":"LF","address":"3601 Deer Hill Road, Lafayette CA 94549","entries":"3481","exits":"3616","coordinates":[-122.12589,37.893394]},
{"name":"Lafayette (LAFY)","code":"LF","address":"3601 Deer Hill Road, Lafayette CA 94549","entries":"3481","exits":"3616","coordinates":[-122.12590,37.893394]},
{"name":"Lafayette (LAFY)","code":"LF","address":"3601 Deer Hill Road, Lafayette CA 94549","entries":"3481","exits":"3616","coordinates":[-122.12591,37.893394]},
{"name":"Lafayette (LAFY)","code":"LF","address":"3601 Deer Hill Road, Lafayette CA 94549","entries":"3481","exits":"3616","coordinates":[-122.12592,37.893394]},
{"name":"Lafayette (LAFY)","code":"LF","address":"3601 Deer Hill Road, Lafayette CA 94549","entries":"3481","exits":"3616","coordinates":[-122.12593,37.893394]},
{"name":"Lafayette (LAFY)","code":"LF","address":"3601 Deer Hill Road, Lafayette CA 94549","entries":"3481","exits":"3616","coordinates":[-122.12594,37.893394]},
{"name":"Lafayette (LAFY)","code":"LF","address":"3601 Deer Hill Road, Lafayette CA 94549","entries":"3481","exits":"3616","coordinates":[-122.12595,37.893394]},
{"name":"Lafayette (LAFY)","code":"LF","address":"3601 Deer Hill Road, Lafayette CA 94549","entries":"3481","exits":"3616","coordinates":[-122.12596,37.893394]},
{"name":"Lafayette (LAFY)","code":"LF","address":"3601 Deer Hill Road, Lafayette CA 94549","entries":"3481","exits":"3616","coordinates":[-122.12597,37.893394]},
{"name":"Lafayette (LAFY)","code":"LF","address":"3601 Deer Hill Road, Lafayette CA 94549","entries":"3481","exits":"3616","coordinates":[-122.12598,37.893394]},
{"name":"Lafayette (LAFY)","code":"LF","address":"3601 Deer Hill Road, Lafayette CA 94549","entries":"3481","exits":"3616","coordinates":[-122.12599,37.893394]},
{"name":"Lafayette (LAFY)","code":"LF","address":"3601 Deer Hill Road, Lafayette CA 94549","entries":"3481","exits":"3616","coordinates":[-122.12600,37.893394]},
{"name":"Lafayette (LAFY)","code":"LF","address":"3601 Deer Hill Road, Lafayette CA 94549","entries":"3481","exits":"3616","coordinates":[-122.12601,37.893394]},
{"name":"Lafayette (LAFY)","code":"LF","address":"3601 Deer Hill Road, Lafayette CA 94549","entries":"3481","exits":"3616","coordinates":[-122.12602,37.893394]},
{"name":"Lafayette (LAFY)","code":"LF","address":"3601 Deer Hill Road, Lafayette CA 94549","entries":"3481","exits":"3616","coordinates":[-122.12603,37.893394]},
{"name":"Lafayette (LAFY)","code":"LF","address":"3601 Deer Hill Road, Lafayette CA 94549","entries":"3481","exits":"3616","coordinates":[-122.12604,37.893394]},
{"name":"Lafayette (LAFY)","code":"LF","address":"3601 Deer Hill Road, Lafayette CA 94549","entries":"3481","exits":"3616","coordinates":[-122.12605,37.893394]},
{"name":"Lafayette (LAFY)","code":"LF","address":"3601 Deer Hill Road, Lafayette CA 94549","entries":"3481","exits":"3616","coordinates":[-122.12606,37.893394]},
{"name":"Lafayette (LAFY)","code":"LF","address":"3601 Deer Hill Road, Lafayette CA 94549","entries":"3481","exits":"3616","coordinates":[-122.12607,37.893394]},
{"name":"Lafayette (LAFY)","code":"LF","address":"3601 Deer Hill Road, Lafayette CA 94549","entries":"3481","exits":"3616","coordinates":[-122.12608,37.893394]},
{"name":"Lafayette (LAFY)","code":"LF","address":"3601 Deer Hill Road, Lafayette CA 94549","entries":"3481","exits":"3616","coordinates":[-122.12609,37.893394]},
{"name":"Lafayette (LAFY)","code":"LF","address":"3601 Deer Hill Road, Lafayette CA 94549","entries":"3481","exits":"3616","coordinates":[-122.12610,37.893394]},
{"name":"Lafayette (LAFY)","code":"LF","address":"3601 Deer Hill Road, Lafayette CA 94549","entries":"3481","exits":"3616","coordinates":[-122.12611,37.893394]},
{"name":"Lafayette (LAFY)","code":"LF","address":"3601 Deer Hill Road, Lafayette CA 94549","entries":"3481","exits":"3616","coordinates":[-122.12612,37.893394]},
{"name":"Lafayette (LAFY)","code":"LF","address":"3601 Deer Hill Road, Lafayette CA 94549","entries":"3481","exits":"3616","coordinates":[-122.12613,37.893394]},
{"name":"Lafayette (LAFY)","code":"LF","address":"3601 Deer Hill Road, Lafayette CA 94549","entries":"3481","exits":"3616","coordinates":[-122.12614,37.893394]},
{"name":"Lafayette (LAFY)","code":"LF","address":"3601 Deer Hill Road, Lafayette CA 94549","entries":"3481","exits":"3616","coordinates":[-122.12615,37.893394]},
{"name":"Lafayette (LAFY)","code":"LF","address":"3601 Deer Hill Road, Lafayette CA 94549","entries":"3481","exits":"3616","coordinates":[-122.12616,37.893394]},
{"name":"Lafayette (LAFY)","code":"LF","address":"3601 Deer Hill Road, Lafayette CA 94549","entries":"3481","exits":"3616","coordinates":[-122.12617,37.893394]},
{"name":"Lafayette (LAFY)","code":"LF","address":"3601 Deer Hill Road, Lafayette CA 94549","entries":"3481","exits":"3616","coordinates":[-122.12618,37.893394]},
{"name":"Lafayette (LAFY)","code":"LF","address":"3601 Deer Hill Road, Lafayette CA 94549","entries":"3481","exits":"3616","coordinates":[-122.12619,37.893394]},
{"name":"Lafayette (LAFY)","code":"LF","address":"3601 Deer Hill Road, Lafayette CA 94549","entries":"3481","exits":"3616","coordinates":[-122.12620,37.893394]},
{"name":"Lafayette (LAFY)","code":"LF","address":"3601 Deer Hill Road, Lafayette CA 94549","entries":"3481","exits":"3616","coordinates":[-122.12621,37.893394]},
{"name":"Lafayette (LAFY)","code":"LF","address":"3601 Deer Hill Road, Lafayette CA 94549","entries":"3481","exits":"3616","coordinates":[-122.12622,37.893394]},
{"name":"Lafayette (LAFY)","code":"LF","address":"3601 Deer Hill Road, Lafayette CA 94549","entries":"3481","exits":"3616","coordinates":[-122.12623,37.893394]},
{"name":"Lafayette (LAFY)","code":"LF","address":"3601 Deer Hill Road, Lafayette CA 94549","entries":"3481","exits":"3616","coordinates":[-122.12624,37.893394]},
{"name":"Lafayette (LAFY)","code":"LF","address":"3601 Deer Hill Road, Lafayette CA 94549","entries":"3481","exits":"3616","coordinates":[-122.12625,37.893394]},
{"name":"Lafayette (LAFY)","code":"LF","address":"3601 Deer Hill Road, Lafayette CA 94549","entries":"3481","exits":"3616","coordinates":[-122.12626,37.893394]},
{"name":"Lafayette (LAFY)","code":"LF","address":"3601 Deer Hill Road, Lafayette CA 94549","entries":"3481","exits":"3616","coordinates":[-122.12627,37.893394]},
{"name":"Lafayette (LAFY)","code":"LF","address":"3601 Deer Hill Road, Lafayette CA 94549","entries":"3481","exits":"3616","coordinates":[-122.12628,37.893394]},
{"name":"Lafayette (LAFY)","code":"LF","address":"3601 Deer Hill Road, Lafayette CA 94549","entries":"3481","exits":"3616","coordinates":[-122.12629,37.893394]},
{"name":"Lafayette (LAFY)","code":"LF","address":"3601 Deer Hill Road, Lafayette CA 94549","entries":"3481","exits":"3616","coordinates":[-122.12630,37.893394]},
{"name":"Lafayette (LAFY)","code":"LF","address":"3601 Deer Hill Road, Lafayette CA 94549","entries":"3481","exits":"3616","coordinates":[-122.12631,37.893394]},
{"name":"Lafayette (LAFY)","code":"LF","address":"3601 Deer Hill Road, Lafayette CA 94549","entries":"3481","exits":"3616","coordinates":[-122.12632,37.893394]},
{"name":"Lafayette (LAFY)","code":"LF","address":"3601 Deer Hill Road, Lafayette CA 94549","entries":"3481","exits":"3616","coordinates":[-122.12633,37.893394]},
{"name":"Lafayette (LAFY)","code":"LF","address":"3601 Deer Hill Road, Lafayette CA 94549","entries":"3481","exits":"3616","coordinates":[-122.12634,37.893394]},
{"name":"Lafayette (LAFY)","code":"LF","address":"3601 Deer Hill Road, Lafayette CA 94549","entries":"3481","exits":"3616","coordinates":[-122.12635,37.893394]},
{"name":"Lafayette (LAFY)","code":"LF","address":"3601 Deer Hill Road, Lafayette CA 94549","entries":"3481","exits":"3616","coordinates":[-122.12636,37.893394]},
{"name":"Lafayette (LAFY)","code":"LF","address":"3601 Deer Hill Road, Lafayette CA 94549","entries":"3481","exits":"3616","coordinates":[-122.12637,37.893394]},
{"name":"Lafayette (LAFY)","code":"LF","address":"3601 Deer Hill Road, Lafayette CA 94549","entries":"3481","exits":"3616","coordinates":[-122.12638,37.893394]},
{"name":"Lafayette (LAFY)","code":"LF","address":"3601 Deer Hill Road, Lafayette CA 94549","entries":"3481","exits":"3616","coordinates":[-122.12639,37.893394]},
{"name":"Lafayette (LAFY)","code":"LF","address":"3601 Deer Hill Road, Lafayette CA 94549","entries":"3481","exits":"3616","coordinates":[-122.12640,37.893394]},
{"name":"Lafayette (LAFY)","code":"LF","address":"3601 Deer Hill Road, Lafayette CA 94549","entries":"3481","exits":"3616","coordinates":[-122.12641,37.893394]},
{"name":"Lafayette (LAFY)","code":"LF","address":"3601 Deer Hill Road, Lafayette CA 94549","entries":"3481","exits":"3616","coordinates":[-122.12642,37.893394]},
{"name":"Lafayette (LAFY)","code":"LF","address":"3601 Deer Hill Road, Lafayette CA 94549","entries":"3481","exits":"3616","coordinates":[-122.12643,37.893394]},
{"name":"Lafayette (LAFY)","code":"LF","address":"3601 Deer Hill Road, Lafayette CA 94549","entries":"3481","exits":"3616","coordinates":[-122.12644,37.893394]},
{"name":"Lafayette (LAFY)","code":"LF","address":"3601 Deer Hill Road, Lafayette CA 94549","entries":"3481","exits":"3616","coordinates":[-122.12645,37.893394]},
{"name":"Lafayette (LAFY)","code":"LF","address":"3601 Deer Hill Road, Lafayette CA 94549","entries":"3481","exits":"3616","coordinates":[-122.12646,37.893394]},
{"name":"Lafayette (LAFY)","code":"LF","address":"3601 Deer Hill Road, Lafayette CA 94549","entries":"3481","exits":"3616","coordinates":[-122.12647,37.893394]},
{"name":"Lafayette (LAFY)","code":"LF","address":"3601 Deer Hill Road, Lafayette CA 94549","entries":"3481","exits":"3616","coordinates":[-122.12648,37.893394]},
{"name":"Lafayette (LAFY)","code":"LF","address":"3601 Deer Hill Road, Lafayette CA 94549","entries":"3481","exits":"3616","coordinates":[-122.12649,37.893394]},
{"name":"Lafayette (LAFY)","code":"LF","address":"3601 Deer Hill Road, Lafayette CA 94549","entries":"3481","exits":"3616","coordinates":[-122.12650,37.893394]},
{"name":"Lafayette (LAFY)","code":"LF","address":"3601 Deer Hill Road, Lafayette CA 94549","entries":"3481","exits":"3616","coordinates":[-122.12651,37.893394]},
{"name":"Lafayette (LAFY)","code":"LF","address":"3601 Deer Hill Road, Lafayette CA 94549","entries":"3481","exits":"3616","coordinates":[-122.12652,37.893394]},
{"name":"Lafayette (LAFY)","code":"LF","address":"3601 Deer Hill Road, Lafayette CA 94549","entries":"3481","exits":"3616","coordinates":[-122.12653,37.893394]},
{"name":"Lafayette (LAFY)","code":"LF","address":"3601 Deer Hill Road, Lafayette CA 94549","entries":"3481","exits":"3616","coordinates":[-122.12654,37.893394]},
{"name":"Lafayette (LAFY)","code":"LF","address":"3601 Deer Hill Road, Lafayette CA 94549","entries":"3481","exits":"3616","coordinates":[-122.12655,37.893394]},
{"name":"Lafayette (LAFY)","code":"LF","address":"3601 Deer Hill Road, Lafayette CA 94549","entries":"3481","exits":"3616","coordinates":[-122.12656,37.893394]},
{"name":"Lafayette (LAFY)","code":"LF","address":"3601 Deer Hill Road, Lafayette CA 94549","entries":"3481","exits":"3616","coordinates":[-122.12657,37.893394]},
{"name":"Lafayette (LAFY)","code":"LF","address":"3601 Deer Hill Road, Lafayette CA 94549","entries":"3481","exits":"3616","coordinates":[-122.12658,37.893394]},
{"name":"Lafayette (LAFY)","code":"LF","address":"3601 Deer Hill Road, Lafayette CA 94549","entries":"3481","exits":"3616","coordinates":[-122.12659,37.893394]},
{"name":"Lafayette (LAFY)","code":"LF","address":"3601 Deer Hill Road, Lafayette CA 94549","entries":"3481","exits":"3616","coordinates":[-122.12660,37.893394]},
{"name":"Lafayette (LAFY)","code":"LF","address":"3601 Deer Hill Road, Lafayette CA 94549","entries":"3481","exits":"3616","coordinates":[-122.12661,37.893394]},
{"name":"Lafayette (LAFY)","code":"LF","address":"3601 Deer Hill Road, Lafayette CA 94549","entries":"3481","exits":"3616","coordinates":[-122.12662,37.893394]},
{"name":"Lafayette (LAFY)","code":"LF","address":"3601 Deer Hill Road, Lafayette CA 94549","entries":"3481","exits":"3616","coordinates":[-122.12663,37.893394]},
{"name":"Lafayette (LAFY)","code":"LF","address":"3601 Deer Hill Road, Lafayette CA 94549","entries":"3481","exits":"3616","coordinates":[-122.12664,37.893394]},
{"name":"Lafayette (LAFY)","code":"LF","address":"3601 Deer Hill Road, Lafayette CA 94549","entries":"3481","exits":"3616","coordinates":[-122.12665,37.893394]},
{"name":"Lafayette (LAFY)","code":"LF","address":"3601 Deer Hill Road, Lafayette CA 94549","entries":"3481","exits":"3616","coordinates":[-122.12666,37.893394]},
{"name":"Lafayette (LAFY)","code":"LF","address":"3601 Deer Hill Road, Lafayette CA 94549","entries":"3481","exits":"3616","coordinates":[-122.12667,37.893394]},
{"name":"Lafayette (LAFY)","code":"LF","address":"3601 Deer Hill Road, Lafayette CA 94549","entries":"3481","exits":"3616","coordinates":[-122.12668,37.893394]},
{"name":"Lafayette (LAFY)","code":"LF","address":"3601 Deer Hill Road, Lafayette CA 94549","entries":"3481","exits":"3616","coordinates":[-122.12669,37.893394]},
{"name":"Lafayette (LAFY)","code":"LF","address":"3601 Deer Hill Road, Lafayette CA 94549","entries":"3481","exits":"3616","coordinates":[-122.12670,37.893394]},
{"name":"Lafayette (LAFY)","code":"LF","address":"3601 Deer Hill Road, Lafayette CA 94549","entries":"3481","exits":"3616","coordinates":[-122.12671,37.893394]},
{"name":"Lafayette (LAFY)","code":"LF","address":"3601 Deer Hill Road, Lafayette CA 94549","entries":"3481","exits":"3616","coordinates":[-122.12672,37.893394]},
{"name":"Lafayette (LAFY)","code":"LF","address":"3601 Deer Hill Road, Lafayette CA 94549","entries":"3481","exits":"3616","coordinates":[-122.12673,37.893394]},
{"name":"Lafayette (LAFY)","code":"LF","address":"3601 Deer Hill Road, Lafayette CA 94549","entries":"3481","exits":"3616","coordinates":[-122.12674,37.893394]},
{"name":"Lafayette (LAFY)","code":"LF","address":"3601 Deer Hill Road, Lafayette CA 94549","entries":"3481","exits":"3616","coordinates":[-122.12675,37.893394]},
{"name":"Lafayette (LAFY)","code":"LF","address":"3601 Deer Hill Road, Lafayette CA 94549","entries":"3481","exits":"3616","coordinates":[-122.12676,37.893394]},
{"name":"Lafayette (LAFY)","code":"LF","address":"3601 Deer Hill Road, Lafayette CA 94549","entries":"3481","exits":"3616","coordinates":[-122.12677,37.893394]},
{"name":"Lafayette (LAFY)","code":"LF","address":"3601 Deer Hill Road, Lafayette CA 94549","entries":"3481","exits":"3616","coordinates":[-122.12678,37.893394]},
{"name":"Lafayette (LAFY)","code":"LF","address":"3601 Deer Hill Road, Lafayette CA 94549","entries":"3481","exits":"3616","coordinates":[-122.12679,37.893394]},
{"name":"Lafayette (LAFY)","code":"LF","address":"3601 Deer Hill Road, Lafayette CA 94549","entries":"3481","exits":"3616","coordinates":[-122.12680,37.893394]},
{"name":"Lafayette (LAFY)","code":"LF","address":"3601 Deer Hill Road, Lafayette CA 94549","entries":"3481","exits":"3616","coordinates":[-122.12681,37.893394]},
{"name":"Lafayette (LAFY)","code":"LF","address":"3601 Deer Hill Road, Lafayette CA 94549","entries":"3481","exits":"3616","coordinates":[-122.12682,37.893394]},
{"name":"Lafayette (LAFY)","code":"LF","address":"3601 Deer Hill Road, Lafayette CA 94549","entries":"3481","exits":"3616","coordinates":[-122.12683,37.893394]},
{"name":"Lafayette (LAFY)","code":"LF","address":"3601 Deer Hill Road, Lafayette CA 94549","entries":"3481","exits":"3616","coordinates":[-122.12684,37.893394]},
{"name":"Lafayette (LAFY)","code":"LF","address":"3601 Deer Hill Road, Lafayette CA 94549","entries":"3481","exits":"3616","coordinates":[-122.12685,37.893394]},
{"name":"Lafayette (LAFY)","code":"LF","address":"3601 Deer Hill Road, Lafayette CA 94549","entries":"3481","exits":"3616","coordinates":[-122.12686,37.893394]},
{"name":"Lafayette (LAFY)","code":"LF","address":"3601 Deer Hill Road, Lafayette CA 94549","entries":"3481","exits":"3616","coordinates":[-122.12687,37.893394]},
{"name":"Lafayette (LAFY)","code":"LF","address":"3601 Deer Hill Road, Lafayette CA 94549","entries":"3481","exits":"3616","coordinates":[-122.12688,37.893394]},
{"name":"Lafayette (LAFY)","code":"LF","address":"3601 Deer Hill Road, Lafayette CA 94549","entries":"3481","exits":"3616","coordinates":[-122.12689,37.893394]},
{"name":"Lafayette (LAFY)","code":"LF","address":"3601 Deer Hill Road, Lafayette CA 94549","entries":"3481","exits":"3616","coordinates":[-122.12690,37.893394]},
{"name":"Lafayette (LAFY)","code":"LF","address":"3601 Deer Hill Road, Lafayette CA 94549","entries":"3481","exits":"3616","coordinates":[-122.12691,37.893394]},
{"name":"Lafayette (LAFY)","code":"LF","address":"3601 Deer Hill Road, Lafayette CA 94549","entries":"3481","exits":"3616","coordinates":[-122.12692,37.893394]},
{"name":"Lafayette (LAFY)","code":"LF","address":"3601 Deer Hill Road, Lafayette CA 94549","entries":"3481","exits":"3616","coordinates":[-122.12693,37.893394]},
{"name":"Lafayette (LAFY)","code":"LF","address":"3601 Deer Hill Road, Lafayette CA 94549","entries":"3481","exits":"3616","coordinates":[-122.12694,37.893394]},
{"name":"Lafayette (LAFY)","code":"LF","address":"3601 Deer Hill Road, Lafayette CA 94549","entries":"3481","exits":"3616","coordinates":[-122.12695,37.893394]},
{"name":"Lafayette (LAFY)","code":"LF","address":"3601 Deer Hill Road, Lafayette CA 94549","entries":"3481","exits":"3616","coordinates":[-122.12696,37.893394]},
{"name":"Lafayette (LAFY)","code":"LF","address":"3601 Deer Hill Road, Lafayette CA 94549","entries":"3481","exits":"3616","coordinates":[-122.12697,37.893394]},
{"name":"Lafayette (LAFY)","code":"LF","address":"3601 Deer Hill Road, Lafayette CA 94549","entries":"3481","exits":"3616","coordinates":[-122.12698,37.893394]},
{"name":"Lafayette (LAFY)","code":"LF","address":"3601 Deer Hill Road, Lafayette CA 94549","entries":"3481","exits":"3616","coordinates":[-122.12699,37.893394]},
{"name":"Lafayette (LAFY)","code":"LF","address":"3601 Deer Hill Road, Lafayette CA 94549","entries":"3481","exits":"3616","coordinates":[-122.12700,37.893394]},
{"name":"Lafayette (LAFY)","code":"LF","address":"3601 Deer Hill Road, Lafayette CA 94549","entries":"3481","exits":"3616","coordinates":[-122.12701,37.893394]},
{"name":"Lafayette (LAFY)","code":"LF","address":"3601 Deer Hill Road, Lafayette CA 94549","entries":"3481","exits":"3616","coordinates":[-122.12702,37.893394]},
{"name":"Lafayette (LAFY)","code":"LF","address":"3601 Deer Hill Road, Lafayette CA 94549","entries":"3481","exits":"3616","coordinates":[-122.12703,37.893394]},
{"name":"Lafayette (LAFY)","code":"LF","address":"3601 Deer Hill Road, Lafayette CA 94549","entries":"3481","exits":"3616","coordinates":[-122.12704,37.893394]},
{"name":"Lafayette (LAFY)","code":"LF","address":"3601 Deer Hill Road, Lafayette CA 94549","entries":"3481","exits":"3616","coordinates":[-122.12705,37.893394]},
{"name":"Lafayette (LAFY)","code":"LF","address":"3601 Deer Hill Road, Lafayette CA 94549","entries":"3481","exits":"3616","coordinates":[-122.12706,37.893394]},
{"name":"Lafayette (LAFY)","code":"LF","address":"3601 Deer Hill Road, Lafayette CA 94549","entries":"3481","exits":"3616","coordinates":[-122.12707,37.893394]},
{"name":"Lafayette (LAFY)","code":"LF","address":"3601 Deer Hill Road, Lafayette CA 94549","entries":"3481","exits":"3616","coordinates":[-122.12708,37.893394]},
{"name":"Lafayette (LAFY)","code":"LF","address":"3601 Deer Hill Road, Lafayette CA 94549","entries":"3481","exits":"3616","coordinates":[-122.12709,37.893394]},
{"name":"Lafayette (LAFY)","code":"LF","address":"3601 Deer Hill Road, Lafayette CA 94549","entries":"3481","exits":"3616","coordinates":[-122.12710,37.893394]},
{"name":"Lafayette (LAFY)","code":"LF","address":"3601 Deer Hill Road, Lafayette CA 94549","entries":"3481","exits":"3616","coordinates":[-122.12711,37.893394]},
{"name":"Lafayette (LAFY)","code":"LF","address":"3601 Deer Hill Road, Lafayette CA 94549","entries":"3481","exits":"3616","coordinates":[-122.12712,37.893394]},
{"name":"Lafayette (LAFY)","code":"LF","address":"3601 Deer Hill Road, Lafayette CA 94549","entries":"3481","exits":"3616","coordinates":[-122.12713,37.893394]},
{"name":"Lafayette (LAFY)","code":"LF","address":"3601 Deer Hill Road, Lafayette CA 94549","entries":"3481","exits":"3616","coordinates":[-122.12714,37.893394]},
{"name":"Lafayette (LAFY)","code":"LF","address":"3601 Deer Hill Road, Lafayette CA 94549","entries":"3481","exits":"3616","coordinates":[-122.12715,37.893394]},
{"name":"Lafayette (LAFY)","code":"LF","address":"3601 Deer Hill Road, Lafayette CA 94549","entries":"3481","exits":"3616","coordinates":[-122.12716,37.893394]},
{"name":"Lafayette (LAFY)","code":"LF","address":"3601 Deer Hill Road, Lafayette CA 94549","entries":"3481","exits":"3616","coordinates":[-122.12717,37.893394]},
{"name":"Lafayette (LAFY)","code":"LF","address":"3601 Deer Hill Road, Lafayette CA 94549","entries":"3481","exits":"3616","coordinates":[-122.12718,37.893394]},
{"name":"Lafayette (LAFY)","code":"LF","address":"3601 Deer Hill Road, Lafayette CA 94549","entries":"3481","exits":"3616","coordinates":[-122.12719,37.893394]},
{"name":"Lafayette (LAFY)","code":"LF","address":"3601 Deer Hill Road, Lafayette CA 94549","entries":"3481","exits":"3616","coordinates":[-122.12720,37.893394]},
{"name":"Lafayette (LAFY)","code":"LF","address":"3601 Deer Hill Road, Lafayette CA 94549","entries":"3481","exits":"3616","coordinates":[-122.12721,37.893394]},
{"name":"Lafayette (LAFY)","code":"LF","address":"3601 Deer Hill Road, Lafayette CA 94549","entries":"3481","exits":"3616","coordinates":[-122.12722,37.893394]},
{"name":"Lafayette (LAFY)","code":"LF","address":"3601 Deer Hill Road, Lafayette CA 94549","entries":"3481","exits":"3616","coordinates":[-122.12723,37.893394]},
{"name":"Lafayette (LAFY)","code":"LF","address":"3601 Deer Hill Road, Lafayette CA 94549","entries":"3481","exits":"3616","coordinates":[-122.12724,37.893394]},
{"name":"Lafayette (LAFY)","code":"LF","address":"3601 Deer Hill Road, Lafayette CA 94549","entries":"3481","exits":"3616","coordinates":[-122.12725,37.893394]},
{"name":"Lafayette (LAFY)","code":"LF","address":"3601 Deer Hill Road, Lafayette CA 94549","entries":"3481","exits":"3616","coordinates":[-122.12726,37.893394]},
{"name":"Lafayette (LAFY)","code":"LF","address":"3601 Deer Hill Road, Lafayette CA 94549","entries":"3481","exits":"3616","coordinates":[-122.12727,37.893394]},
{"name":"Lafayette (LAFY)","code":"LF","address":"3601 Deer Hill Road, Lafayette CA 94549","entries":"3481","exits":"3616","coordinates":[-122.12728,37.893394]},
{"name":"Lafayette (LAFY)","code":"LF","address":"3601 Deer Hill Road, Lafayette CA 94549","entries":"3481","exits":"3616","coordinates":[-122.12729,37.893394]},
{"name":"Lafayette (LAFY)","code":"LF","address":"3601 Deer Hill Road, Lafayette CA 94549","entries":"3481","exits":"3616","coordinates":[-122.12730,37.893394]},
{"name":"Lafayette (LAFY)","code":"LF","address":"3601 Deer Hill Road, Lafayette CA 94549","entries":"3481","exits":"3616","coordinates":[-122.12731,37.893394]},
{"name":"Lafayette (LAFY)","code":"LF","address":"3601 Deer Hill Road, Lafayette CA 94549","entries":"3481","exits":"3616","coordinates":[-122.12732,37.893394]},
{"name":"Lafayette (LAFY)","code":"LF","address":"3601 Deer Hill Road, Lafayette CA 94549","entries":"3481","exits":"3616","coordinates":[-122.12733,37.893394]},
{"name":"Lafayette (LAFY)","code":"LF","address":"3601 Deer Hill Road, Lafayette CA 94549","entries":"3481","exits":"3616","coordinates":[-122.12734,37.893394]},
{"name":"Lafayette (LAFY)","code":"LF","address":"3601 Deer Hill Road, Lafayette CA 94549","entries":"3481","exits":"3616","coordinates":[-122.12735,37.893394]},
{"name":"Lafayette (LAFY)","code":"LF","address":"3601 Deer Hill Road, Lafayette CA 94549","entries":"3481","exits":"3616","coordinates":[-122.12736,37.893394]},
{"name":"Lafayette (LAFY)","code":"LF","address":"3601 Deer Hill Road, Lafayette CA 94549","entries":"3481","exits":"3616","coordinates":[-122.12737,37.893394]},
{"name":"Lafayette (LAFY)","code":"LF","address":"3601 Deer Hill Road, Lafayette CA 94549","entries":"3481","exits":"3616","coordinates":[-122.12738,37.893394]},
{"name":"Lafayette (LAFY)","code":"LF","address":"3601 Deer Hill Road, Lafayette CA 94549","entries":"3481","exits":"3616","coordinates":[-122.12739,37.893394]},
{"name":"Lafayette (LAFY)","code":"LF","address":"3601 Deer Hill Road, Lafayette CA 94549","entries":"3481","exits":"3616","coordinates":[-122.12740,37.893394]},
{"name":"Lafayette (LAFY)","code":"LF","address":"3601 Deer Hill Road, Lafayette CA 94549","entries":"3481","exits":"3616","coordinates":[-122.12741,37.893394]},
{"name":"Lafayette (LAFY)","code":"LF","address":"3601 Deer Hill Road, Lafayette CA 94549","entries":"3481","exits":"3616","coordinates":[-122.12742,37.893394]},
{"name":"Lafayette (LAFY)","code":"LF","address":"3601 Deer Hill Road, Lafayette CA 94549","entries":"3481","exits":"3616","coordinates":[-122.12743,37.893394]},
{"name":"Lafayette (LAFY)","code":"LF","address":"3601 Deer Hill Road, Lafayette CA 94549","entries":"3481","exits":"3616","coordinates":[-122.12744,37.893394]},
{"name":"Lafayette (LAFY)","code":"LF","address":"3601 Deer Hill Road, Lafayette CA 94549","entries":"3481","exits":"3616","coordinates":[-122.12745,37.893394]},
{"name":"Lafayette (LAFY)","code":"LF","address":"3601 Deer Hill Road, Lafayette CA 94549","entries":"3481","exits":"3616","coordinates":[-122.12746,37.893394]},
{"name":"Lafayette (LAFY)","code":"LF","address":"3601 Deer Hill Road, Lafayette CA 94549","entries":"3481","exits":"3616","coordinates":[-122.12747,37.893394]},
{"name":"Lafayette (LAFY)","code":"LF","address":"3601 Deer Hill Road, Lafayette CA 94549","entries":"3481","exits":"3616","coordinates":[-122.12748,37.893394]},
{"name":"Lafayette (LAFY)","code":"LF","address":"3601 Deer Hill Road, Lafayette CA 94549","entries":"3481","exits":"3616","coordinates":[-122.12749,37.893394]},
{"name":"Lafayette (LAFY)","code":"LF","address":"3601 Deer Hill Road, Lafayette CA 94549","entries":"3481","exits":"3616","coordinates":[-122.12750,37.893394]},
{"name":"Lafayette (LAFY)","code":"LF","address":"3601 Deer Hill Road, Lafayette CA 94549","entries":"3481","exits":"3616","coordinates":[-122.12751,37.893394]},
{"name":"Lafayette (LAFY)","code":"LF","address":"3601 Deer Hill Road, Lafayette CA 94549","entries":"3481","exits":"3616","coordinates":[-122.12752,37.893394]},
{"name":"Lafayette (LAFY)","code":"LF","address":"3601 Deer Hill Road, Lafayette CA 94549","entries":"3481","exits":"3616","coordinates":[-122.12753,37.893394]},
{"name":"Lafayette (LAFY)","code":"LF","address":"3601 Deer Hill Road, Lafayette CA 94549","entries":"3481","exits":"3616","coordinates":[-122.12754,37.893394]},
{"name":"Lafayette (LAFY)","code":"LF","address":"3601 Deer Hill Road, Lafayette CA 94549","entries":"3481","exits":"3616","coordinates":[-122.12755,37.893394]},
{"name":"Lafayette (LAFY)","code":"LF","address":"3601 Deer Hill Road, Lafayette CA 94549","entries":"3481","exits":"3616","coordinates":[-122.12756,37.893394]},
{"name":"Lafayette (LAFY)","code":"LF","address":"3601 Deer Hill Road, Lafayette CA 94549","entries":"3481","exits":"3616","coordinates":[-122.12757,37.893394]},
{"name":"Lafayette (LAFY)","code":"LF","address":"3601 Deer Hill Road, Lafayette CA 94549","entries":"3481","exits":"3616","coordinates":[-122.12758,37.893394]},
{"name":"Lafayette (LAFY)","code":"LF","address":"3601 Deer Hill Road, Lafayette CA 94549","entries":"3481","exits":"3616","coordinates":[-122.12759,37.893394]},
{"name":"Lafayette (LAFY)","code":"LF","address":"3601 Deer Hill Road, Lafayette CA 94549","entries":"3481","exits":"3616","coordinates":[-122.12760,37.893394]},
{"name":"Lafayette (LAFY)","code":"LF","address":"3601 Deer Hill Road, Lafayette CA 94549","entries":"3481","exits":"3616","coordinates":[-122.12761,37.893394]},
{"name":"Lafayette (LAFY)","code":"LF","address":"3601 Deer Hill Road, Lafayette CA 94549","entries":"3481","exits":"3616","coordinates":[-122.12762,37.893394]},
{"name":"Lafayette (LAFY)","code":"LF","address":"3601 Deer Hill Road, Lafayette CA 94549","entries":"3481","exits":"3616","coordinates":[-122.12763,37.893394]},
{"name":"Lafayette (LAFY)","code":"LF","address":"3601 Deer Hill Road, Lafayette CA 94549","entries":"3481","exits":"3616","coordinates":[-122.12764,37.893394]},
{"name":"Lafayette (LAFY)","code":"LF","address":"3601 Deer Hill Road, Lafayette CA 94549","entries":"3481","exits":"3616","coordinates":[-122.12765,37.893394]},
{"name":"Lafayette (LAFY)","code":"LF","address":"3601 Deer Hill Road, Lafayette CA 94549","entries":"3481","exits":"3616","coordinates":[-122.12766,37.893394]},
{"name":"Lafayette (LAFY)","code":"LF","address":"3601 Deer Hill Road, Lafayette CA 94549","entries":"3481","exits":"3616","coordinates":[-122.12767,37.893394]},
{"name":"Lafayette (LAFY)","code":"LF","address":"3601 Deer Hill Road, Lafayette CA 94549","entries":"3481","exits":"3616","coordinates":[-122.12768,37.893394]},
{"name":"Lafayette (LAFY)","code":"LF","address":"3601 Deer Hill Road, Lafayette CA 94549","entries":"3481","exits":"3616","coordinates":[-122.12769,37.893394]},
{"name":"Lafayette (LAFY)","code":"LF","address":"3601 Deer Hill Road, Lafayette CA 94549","entries":"3481","exits":"3616","coordinates":[-122.12770,37.893394]},
{"name":"Lafayette (LAFY)","code":"LF","address":"3601 Deer Hill Road, Lafayette CA 94549","entries":"3481","exits":"3616","coordinates":[-122.12771,37.893394]},
{"name":"Lafayette (LAFY)","code":"LF","address":"3601 Deer Hill Road, Lafayette CA 94549","entries":"3481","exits":"3616","coordinates":[-122.12772,37.893394]},
{"name":"Lafayette (LAFY)","code":"LF","address":"3601 Deer Hill Road, Lafayette CA 94549","entries":"3481","exits":"3616","coordinates":[-122.12773,37.893394]},
{"name":"Lafayette (LAFY)","code":"LF","address":"3601 Deer Hill Road, Lafayette CA 94549","entries":"3481","exits":"3616","coordinates":[-122.12774,37.893394]},
{"name":"Lafayette (LAFY)","code":"LF","address":"3601 Deer Hill Road, Lafayette CA 94549","entries":"3481","exits":"3616","coordinates":[-122.12775,37.893394]},
{"name":"Lafayette (LAFY)","code":"LF","address":"3601 Deer Hill Road, Lafayette CA 94549","entries":"3481","exits":"3616","coordinates":[-122.12776,37.893394]},
{"name":"Lafayette (LAFY)","code":"LF","address":"3601 Deer Hill Road, Lafayette CA 94549","entries":"3481","exits":"3616","coordinates":[-122.12777,37.893394]},
{"name":"Lafayette (LAFY)","code":"LF","address":"3601 Deer Hill Road, Lafayette CA 94549","entries":"3481","exits":"3616","coordinates":[-122.12778,37.893394]},
{"name":"Lafayette (LAFY)","code":"LF","address":"3601 Deer Hill Road, Lafayette CA 94549","entries":"3481","exits":"3616","coordinates":[-122.12779,37.893394]},
{"name":"Lafayette (LAFY)","code":"LF","address":"3601 Deer Hill Road, Lafayette CA 94549","entries":"3481","exits":"3616","coordinates":[-122.12780,37.893394]},
{"name":"Lafayette (LAFY)","code":"LF","address":"3601 Deer Hill Road, Lafayette CA 94549","entries":"3481","exits":"3616","coordinates":[-122.12781,37.893394]},
{"name":"Lafayette (LAFY)","code":"LF","address":"3601 Deer Hill Road, Lafayette CA 94549","entries":"3481","exits":"3616","coordinates":[-122.12782,37.893394]},
{"name":"Lafayette (LAFY)","code":"LF","address":"3601 Deer Hill Road, Lafayette CA 94549","entries":"3481","exits":"3616","coordinates":[-122.12783,37.893394]},
{"name":"Lafayette (LAFY)","code":"LF","address":"3601 Deer Hill Road, Lafayette CA 94549","entries":"3481","exits":"3616","coordinates":[-122.12784,37.893394]},
{"name":"Lafayette (LAFY)","code":"LF","address":"3601 Deer Hill Road, Lafayette CA 94549","entries":"3481","exits":"3616","coordinates":[-122.12785,37.893394]},
{"name":"Lafayette (LAFY)","code":"LF","address":"3601 Deer Hill Road, Lafayette CA 94549","entries":"3481","exits":"3616","coordinates":[-122.12786,37.893394]},
{"name":"Lafayette (LAFY)","code":"LF","address":"3601 Deer Hill Road, Lafayette CA 94549","entries":"3481","exits":"3616","coordinates":[-122.12787,37.893394]},
{"name":"Lafayette (LAFY)","code":"LF","address":"3601 Deer Hill Road, Lafayette CA 94549","entries":"3481","exits":"3616","coordinates":[-122.12788,37.893394]},
{"name":"Lafayette (LAFY)","code":"LF","address":"3601 Deer Hill Road, Lafayette CA 94549","entries":"3481","exits":"3616","coordinates":[-122.12789,37.893394]},
{"name":"Lafayette (LAFY)","code":"LF","address":"3601 Deer Hill Road, Lafayette CA 94549","entries":"3481","exits":"3616","coordinates":[-122.12790,37.893394]},
{"name":"Lafayette (LAFY)","code":"LF","address":"3601 Deer Hill Road, Lafayette CA 94549","entries":"3481","exits":"3616","coordinates":[-122.12791,37.893394]},
{"name":"Lafayette (LAFY)","code":"LF","address":"3601 Deer Hill Road, Lafayette CA 94549","entries":"3481","exits":"3616","coordinates":[-122.12792,37.893394]},
{"name":"Lafayette (LAFY)","code":"LF","address":"3601 Deer Hill Road, Lafayette CA 94549","entries":"3481","exits":"3616","coordinates":[-122.12793,37.893394]},
{"name":"Lafayette (LAFY)","code":"LF","address":"3601 Deer Hill Road, Lafayette CA 94549","entries":"3481","exits":"3616","coordinates":[-122.12794,37.893394]},
{"name":"Lafayette (LAFY)","code":"LF","address":"3601 Deer Hill Road, Lafayette CA 94549","entries":"3481","exits":"3616","coordinates":[-122.12795,37.893394]},
{"name":"Lafayette (LAFY)","code":"LF","address":"3601 Deer Hill Road, Lafayette CA 94549","entries":"3481","exits":"3616","coordinates":[-122.12796,37.893394]},
{"name":"Lafayette (LAFY)","code":"LF","address":"3601 Deer Hill Road, Lafayette CA 94549","entries":"3481","exits":"3616","coordinates":[-122.12797,37.893394]},
{"name":"Lafayette (LAFY)","code":"LF","address":"3601 Deer Hill Road, Lafayette CA 94549","entries":"3481","exits":"3616","coordinates":[-122.12798,37.893394]},
{"name":"Lafayette (LAFY)","code":"LF","address":"3601 Deer Hill Road, Lafayette CA 94549","entries":"3481","exits":"3616","coordinates":[-122.12799,37.893394]},
{"name":"Lafayette (LAFY)","code":"LF","address":"3601 Deer Hill Road, Lafayette CA 94549","entries":"3481","exits":"3616","coordinates":[-122.12800,37.893394]},
{"name":"Lafayette (LAFY)","code":"LF","address":"3601 Deer Hill Road, Lafayette CA 94549","entries":"3481","exits":"3616","coordinates":[-122.12801,37.893394]},
{"name":"Lafayette (LAFY)","code":"LF","address":"3601 Deer Hill Road, Lafayette CA 94549","entries":"3481","exits":"3616","coordinates":[-122.12802,37.893394]},
{"name":"Lafayette (LAFY)","code":"LF","address":"3601 Deer Hill Road, Lafayette CA 94549","entries":"3481","exits":"3616","coordinates":[-122.12803,37.893394]},
{"name":"Lafayette (LAFY)","code":"LF","address":"3601 Deer Hill Road, Lafayette CA 94549","entries":"3481","exits":"3616","coordinates":[-122.12804,37.893394]},
{"name":"Lafayette (LAFY)","code":"LF","address":"3601 Deer Hill Road, Lafayette CA 94549","entries":"3481","exits":"3616","coordinates":[-122.12805,37.893394]},
{"name":"Lafayette (LAFY)","code":"LF","address":"3601 Deer Hill Road, Lafayette CA 94549","entries":"3481","exits":"3616","coordinates":[-122.12806,37.893394]},
{"name":"Lafayette (LAFY)","code":"LF","address":"3601 Deer Hill Road, Lafayette CA 94549","entries":"3481","exits":"3616","coordinates":[-122.12807,37.893394]},
{"name":"Lafayette (LAFY)","code":"LF","address":"3601 Deer Hill Road, Lafayette CA 94549","entries":"3481","exits":"3616","coordinates":[-122.12808,37.893394]},
{"name":"Lafayette (LAFY)","code":"LF","address":"3601 Deer Hill Road, Lafayette CA 94549","entries":"3481","exits":"3616","coordinates":[-122.12809,37.893394]},
{"name":"Lafayette (LAFY)","code":"LF","address":"3601 Deer Hill Road, Lafayette CA 94549","entries":"3481","exits":"3616","coordinates":[-122.12810,37.893394]},
{"name":"Lafayette (LAFY)","code":"LF","address":"3601 Deer Hill Road, Lafayette CA 94549","entries":"3481","exits":"3616","coordinates":[-122.12811,37.893394]},
{"name":"Lafayette (LAFY)","code":"LF","address":"3601 Deer Hill Road, Lafayette CA 94549","entries":"3481","exits":"3616","coordinates":[-122.12812,37.893394]},
{"name":"Lafayette (LAFY)","code":"LF","address":"3601 Deer Hill Road, Lafayette CA 94549","entries":"3481","exits":"3616","coordinates":[-122.12813,37.893394]},
{"name":"Lafayette (LAFY)","code":"LF","address":"3601 Deer Hill Road, Lafayette CA 94549","entries":"3481","exits":"3616","coordinates":[-122.12814,37.893394]},
{"name":"Lafayette (LAFY)","code":"LF","address":"3601 Deer Hill Road, Lafayette CA 94549","entries":"3481","exits":"3616","coordinates":[-122.12815,37.893394]},
{"name":"Lafayette (LAFY)","code":"LF","address":"3601 Deer Hill Road, Lafayette CA 94549","entries":"3481","exits":"3616","coordinates":[-122.12816,37.893394]},
{"name":"Lafayette (LAFY)","code":"LF","address":"3601 Deer Hill Road, Lafayette CA 94549","entries":"3481","exits":"3616","coordinates":[-122.12817,37.893394]},
{"name":"Lafayette (LAFY)","code":"LF","address":"3601 Deer Hill Road, Lafayette CA 94549","entries":"3481","exits":"3616","coordinates":[-122.12818,37.893394]},
{"name":"Lafayette (LAFY)","code":"LF","address":"3601 Deer Hill Road, Lafayette CA 94549","entries":"3481","exits":"3616","coordinates":[-122.12819,37.893394]},
{"name":"Lafayette (LAFY)","code":"LF","address":"3601 Deer Hill Road, Lafayette CA 94549","entries":"3481","exits":"3616","coordinates":[-122.12820,37.893394]},
{"name":"Lafayette (LAFY)","code":"LF","address":"3601 Deer Hill Road, Lafayette CA 94549","entries":"3481","exits":"3616","coordinates":[-122.12821,37.893394]},
{"name":"Lafayette (LAFY)","code":"LF","address":"3601 Deer Hill Road, Lafayette CA 94549","entries":"3481","exits":"3616","coordinates":[-122.12822,37.893394]},
{"name":"Lafayette (LAFY)","code":"LF","address":"3601 Deer Hill Road, Lafayette CA 94549","entries":"3481","exits":"3616","coordinates":[-122.12823,37.893394]},
{"name":"Lafayette (LAFY)","code":"LF","address":"3601 Deer Hill Road, Lafayette CA 94549","entries":"3481","exits":"3616","coordinates":[-122.12824,37.893394]},
{"name":"Lafayette (LAFY)","code":"LF","address":"3601 Deer Hill Road, Lafayette CA 94549","entries":"3481","exits":"3616","coordinates":[-122.12825,37.893394]},
{"name":"Lafayette (LAFY)","code":"LF","address":"3601 Deer Hill Road, Lafayette CA 94549","entries":"3481","exits":"3616","coordinates":[-122.12826,37.893394]},
{"name":"Lafayette (LAFY)","code":"LF","address":"3601 Deer Hill Road, Lafayette CA 94549","entries":"3481","exits":"3616","coordinates":[-122.12827,37.893394]},
{"name":"Lafayette (LAFY)","code":"LF","address":"3601 Deer Hill Road, Lafayette CA 94549","entries":"3481","exits":"3616","coordinates":[-122.12828,37.893394]},
{"name":"Lafayette (LAFY)","code":"LF","address":"3601 Deer Hill Road, Lafayette CA 94549","entries":"3481","exits":"3616","coordinates":[-122.12829,37.893394]},
{"name":"Lafayette (LAFY)","code":"LF","address":"3601 Deer Hill Road, Lafayette CA 94549","entries":"3481","exits":"3616","coordinates":[-122.12830,37.893394]},
{"name":"Lafayette (LAFY)","code":"LF","address":"3601 Deer Hill Road, Lafayette CA 94549","entries":"3481","exits":"3616","coordinates":[-122.12831,37.893394]},
{"name":"Lafayette (LAFY)","code":"LF","address":"3601 Deer Hill Road, Lafayette CA 94549","entries":"3481","exits":"3616","coordinates":[-122.12832,37.893394]},
{"name":"Lafayette (LAFY)","code":"LF","address":"3601 Deer Hill Road, Lafayette CA 94549","entries":"3481","exits":"3616","coordinates":[-122.12833,37.893394]},
{"name":"Lafayette (LAFY)","code":"LF","address":"3601 Deer Hill Road, Lafayette CA 94549","entries":"3481","exits":"3616","coordinates":[-122.12834,37.893394]},
{"name":"Lafayette (LAFY)","code":"LF","address":"3601 Deer Hill Road, Lafayette CA 94549","entries":"3481","exits":"3616","coordinates":[-122.12835,37.893394]},
{"name":"Lafayette (LAFY)","code":"LF","address":"3601 Deer Hill Road, Lafayette CA 94549","entries":"3481","exits":"3616","coordinates":[-122.12836,37.893394]},
{"name":"Lafayette (LAFY)","code":"LF","address":"3601 Deer Hill Road, Lafayette CA 94549","entries":"3481","exits":"3616","coordinates":[-122.12837,37.893394]},
{"name":"Lafayette (LAFY)","code":"LF","address":"3601 Deer Hill Road, Lafayette CA 94549","entries":"3481","exits":"3616","coordinates":[-122.12838,37.893394]},
{"name":"Lafayette (LAFY)","code":"LF","address":"3601 Deer Hill Road, Lafayette CA 94549","entries":"3481","exits":"3616","coordinates":[-122.12839,37.893394]},
{"name":"Lafayette (LAFY)","code":"LF","address":"3601 Deer Hill Road, Lafayette CA 94549","entries":"3481","exits":"3616","coordinates":[-122.12840,37.893394]},
{"name":"Lafayette (LAFY)","code":"LF","address":"3601 Deer Hill Road, Lafayette CA 94549","entries":"3481","exits":"3616","coordinates":[-122.12841,37.893394]},
{"name":"Lafayette (LAFY)","code":"LF","address":"3601 Deer Hill Road, Lafayette CA 94549","entries":"3481","exits":"3616","coordinates":[-122.12842,37.893394]},
{"name":"Lafayette (LAFY)","code":"LF","address":"3601 Deer Hill Road, Lafayette CA 94549","entries":"3481","exits":"3616","coordinates":[-122.12843,37.893394]},
{"name":"Lafayette (LAFY)","code":"LF","address":"3601 Deer Hill Road, Lafayette CA 94549","entries":"3481","exits":"3616","coordinates":[-122.12844,37.893394]},
{"name":"Lafayette (LAFY)","code":"LF","address":"3601 Deer Hill Road, Lafayette CA 94549","entries":"3481","exits":"3616","coordinates":[-122.12845,37.893394]},
{"name":"Lafayette (LAFY)","code":"LF","address":"3601 Deer Hill Road, Lafayette CA 94549","entries":"3481","exits":"3616","coordinates":[-122.12846,37.893394]},
{"name":"Lafayette (LAFY)","code":"LF","address":"3601 Deer Hill Road, Lafayette CA 94549","entries":"3481","exits":"3616","coordinates":[-122.12847,37.893394]},
{"name":"Lafayette (LAFY)","code":"LF","address":"3601 Deer Hill Road, Lafayette CA 94549","entries":"3481","exits":"3616","coordinates":[-122.12848,37.893394]},
{"name":"Lafayette (LAFY)","code":"LF","address":"3601 Deer Hill Road, Lafayette CA 94549","entries":"3481","exits":"3616","coordinates":[-122.12849,37.893394]},
{"name":"Lafayette (LAFY)","code":"LF","address":"3601 Deer Hill Road, Lafayette CA 94549","entries":"3481","exits":"3616","coordinates":[-122.12850,37.893394]},
{"name":"Lafayette (LAFY)","code":"LF","address":"3601 Deer Hill Road, Lafayette CA 94549","entries":"3481","exits":"3616","coordinates":[-122.12851,37.893394]},
{"name":"Lafayette (LAFY)","code":"LF","address":"3601 Deer Hill Road, Lafayette CA 94549","entries":"3481","exits":"3616","coordinates":[-122.12852,37.893394]},
{"name":"Lafayette (LAFY)","code":"LF","address":"3601 Deer Hill Road, Lafayette CA 94549","entries":"3481","exits":"3616","coordinates":[-122.12853,37.893394]},
{"name":"Lafayette (LAFY)","code":"LF","address":"3601 Deer Hill Road, Lafayette CA 94549","entries":"3481","exits":"3616","coordinates":[-122.12854,37.893394]},
{"name":"Lafayette (LAFY)","code":"LF","address":"3601 Deer Hill Road, Lafayette CA 94549","entries":"3481","exits":"3616","coordinates":[-122.12855,37.893394]},
{"name":"Lafayette (LAFY)","code":"LF","address":"3601 Deer Hill Road, Lafayette CA 94549","entries":"3481","exits":"3616","coordinates":[-122.12856,37.893394]},
{"name":"Lafayette (LAFY)","code":"LF","address":"3601 Deer Hill Road, Lafayette CA 94549","entries":"3481","exits":"3616","coordinates":[-122.12857,37.893394]},
{"name":"Lafayette (LAFY)","code":"LF","address":"3601 Deer Hill Road, Lafayette CA 94549","entries":"3481","exits":"3616","coordinates":[-122.12858,37.893394]},
{"name":"Lafayette (LAFY)","code":"LF","address":"3601 Deer Hill Road, Lafayette CA 94549","entries":"3481","exits":"3616","coordinates":[-122.12859,37.893394]},
{"name":"Lafayette (LAFY)","code":"LF","address":"3601 Deer Hill Road, Lafayette CA 94549","entries":"3481","exits":"3616","coordinates":[-122.12860,37.893394]},
{"name":"Lafayette (LAFY)","code":"LF","address":"3601 Deer Hill Road, Lafayette CA 94549","entries":"3481","exits":"3616","coordinates":[-122.12861,37.893394]},
{"name":"Lafayette (LAFY)","code":"LF","address":"3601 Deer Hill Road, Lafayette CA 94549","entries":"3481","exits":"3616","coordinates":[-122.12862,37.893394]},
{"name":"Lafayette (LAFY)","code":"LF","address":"3601 Deer Hill Road, Lafayette CA 94549","entries":"3481","exits":"3616","coordinates":[-122.12863,37.893394]},
{"name":"Lafayette (LAFY)","code":"LF","address":"3601 Deer Hill Road, Lafayette CA 94549","entries":"3481","exits":"3616","coordinates":[-122.12864,37.893394]},
{"name":"Lafayette (LAFY)","code":"LF","address":"3601 Deer Hill Road, Lafayette CA 94549","entries":"3481","exits":"3616","coordinates":[-122.12865,37.893394]},
{"name":"Lafayette (LAFY)","code":"LF","address":"3601 Deer Hill Road, Lafayette CA 94549","entries":"3481","exits":"3616","coordinates":[-122.12866,37.893394]},
{"name":"Lafayette (LAFY)","code":"LF","address":"3601 Deer Hill Road, Lafayette CA 94549","entries":"3481","exits":"3616","coordinates":[-122.12867,37.893394]},
{"name":"Lafayette (LAFY)","code":"LF","address":"3601 Deer Hill Road, Lafayette CA 94549","entries":"3481","exits":"3616","coordinates":[-122.12868,37.893394]},
{"name":"Lafayette (LAFY)","code":"LF","address":"3601 Deer Hill Road, Lafayette CA 94549","entries":"3481","exits":"3616","coordinates":[-122.12869,37.893394]},
{"name":"Lafayette (LAFY)","code":"LF","address":"3601 Deer Hill Road, Lafayette CA 94549","entries":"3481","exits":"3616","coordinates":[-122.12870,37.893394]},
{"name":"Lafayette (LAFY)","code":"LF","address":"3601 Deer Hill Road, Lafayette CA 94549","entries":"3481","exits":"3616","coordinates":[-122.12871,37.893394]},
{"name":"Lafayette (LAFY)","code":"LF","address":"3601 Deer Hill Road, Lafayette CA 94549","entries":"3481","exits":"3616","coordinates":[-122.12872,37.893394]},
{"name":"Lafayette (LAFY)","code":"LF","address":"3601 Deer Hill Road, Lafayette CA 94549","entries":"3481","exits":"3616","coordinates":[-122.12873,37.893394]},
{"name":"Lafayette (LAFY)","code":"LF","address":"3601 Deer Hill Road, Lafayette CA 94549","entries":"3481","exits":"3616","coordinates":[-122.12874,37.893394]},
{"name":"Lafayette (LAFY)","code":"LF","address":"3601 Deer Hill Road, Lafayette CA 94549","entries":"3481","exits":"3616","coordinates":[-122.12875,37.893394]},
{"name":"Lafayette (LAFY)","code":"LF","address":"3601 Deer Hill Road, Lafayette CA 94549","entries":"3481","exits":"3616","coordinates":[-122.12876,37.893394]},
{"name":"Lafayette (LAFY)","code":"LF","address":"3601 Deer Hill Road, Lafayette CA 94549","entries":"3481","exits":"3616","coordinates":[-122.12877,37.893394]},
{"name":"Lafayette (LAFY)","code":"LF","address":"3601 Deer Hill Road, Lafayette CA 94549","entries":"3481","exits":"3616","coordinates":[-122.12878,37.893394]},
{"name":"Lafayette (LAFY)","code":"LF","address":"3601 Deer Hill Road, Lafayette CA 94549","entries":"3481","exits":"3616","coordinates":[-122.12879,37.893394]},
{"name":"Lafayette (LAFY)","code":"LF","address":"3601 Deer Hill Road, Lafayette CA 94549","entries":"3481","exits":"3616","coordinates":[-122.12880,37.893394]},
{"name":"Lafayette (LAFY)","code":"LF","address":"3601 Deer Hill Road, Lafayette CA 94549","entries":"3481","exits":"3616","coordinates":[-122.12881,37.893394]},
{"name":"Lafayette (LAFY)","code":"LF","address":"3601 Deer Hill Road, Lafayette CA 94549","entries":"3481","exits":"3616","coordinates":[-122.12882,37.893394]},
{"name":"Lafayette (LAFY)","code":"LF","address":"3601 Deer Hill Road, Lafayette CA 94549","entries":"3481","exits":"3616","coordinates":[-122.12883,37.893394]},
{"name":"Lafayette (LAFY)","code":"LF","address":"3601 Deer Hill Road, Lafayette CA 94549","entries":"3481","exits":"3616","coordinates":[-122.12884,37.893394]},
{"name":"Lafayette (LAFY)","code":"LF","address":"3601 Deer Hill Road, Lafayette CA 94549","entries":"3481","exits":"3616","coordinates":[-122.12885,37.893394]},
{"name":"Lafayette (LAFY)","code":"LF","address":"3601 Deer Hill Road, Lafayette CA 94549","entries":"3481","exits":"3616","coordinates":[-122.12886,37.893394]},
{"name":"Lafayette (LAFY)","code":"LF","address":"3601 Deer Hill Road, Lafayette CA 94549","entries":"3481","exits":"3616","coordinates":[-122.12887,37.893394]},
{"name":"Lafayette (LAFY)","code":"LF","address":"3601 Deer Hill Road, Lafayette CA 94549","entries":"3481","exits":"3616","coordinates":[-122.12888,37.893394]},
{"name":"Lafayette (LAFY)","code":"LF","address":"3601 Deer Hill Road, Lafayette CA 94549","entries":"3481","exits":"3616","coordinates":[-122.12889,37.893394]},
{"name":"Lafayette (LAFY)","code":"LF","address":"3601 Deer Hill Road, Lafayette CA 94549","entries":"3481","exits":"3616","coordinates":[-122.12890,37.893394]},
{"name":"Lafayette (LAFY)","code":"LF","address":"3601 Deer Hill Road, Lafayette CA 94549","entries":"3481","exits":"3616","coordinates":[-122.12891,37.893394]},
{"name":"Lafayette (LAFY)","code":"LF","address":"3601 Deer Hill Road, Lafayette CA 94549","entries":"3481","exits":"3616","coordinates":[-122.12892,37.893394]},
{"name":"Lafayette (LAFY)","code":"LF","address":"3601 Deer Hill Road, Lafayette CA 94549","entries":"3481","exits":"3616","coordinates":[-122.12893,37.893394]},
{"name":"Lafayette (LAFY)","code":"LF","address":"3601 Deer Hill Road, Lafayette CA 94549","entries":"3481","exits":"3616","coordinates":[-122.12894,37.893394]},
{"name":"Lafayette (LAFY)","code":"LF","address":"3601 Deer Hill Road, Lafayette CA 94549","entries":"3481","exits":"3616","coordinates":[-122.12895,37.893394]},
{"name":"Lafayette (LAFY)","code":"LF","address":"3601 Deer Hill Road, Lafayette CA 94549","entries":"3481","exits":"3616","coordinates":[-122.12896,37.893394]},
{"name":"Lafayette (LAFY)","code":"LF","address":"3601 Deer Hill Road, Lafayette CA 94549","entries":"3481","exits":"3616","coordinates":[-122.12897,37.893394]},
{"name":"Lafayette (LAFY)","code":"LF","address":"3601 Deer Hill Road, Lafayette CA 94549","entries":"3481","exits":"3616","coordinates":[-122.12898,37.893394]},
{"name":"Lafayette (LAFY)","code":"LF","address":"3601 Deer Hill Road, Lafayette CA 94549","entries":"3481","exits":"3616","coordinates":[-122.12899,37.893394]},
{"name":"Lafayette (LAFY)","code":"LF","address":"3601 Deer Hill Road, Lafayette CA 94549","entries":"3481","exits":"3616","coordinates":[-122.12900,37.893394]},
{"name":"Lafayette (LAFY)","code":"LF","address":"3601 Deer Hill Road, Lafayette CA 94549","entries":"3481","exits":"3616","coordinates":[-122.12901,37.893394]},
{"name":"Lafayette (LAFY)","code":"LF","address":"3601 Deer Hill Road, Lafayette CA 94549","entries":"3481","exits":"3616","coordinates":[-122.12902,37.893394]},
{"name":"Lafayette (LAFY)","code":"LF","address":"3601 Deer Hill Road, Lafayette CA 94549","entries":"3481","exits":"3616","coordinates":[-122.12903,37.893394]},
{"name":"Lafayette (LAFY)","code":"LF","address":"3601 Deer Hill Road, Lafayette CA 94549","entries":"3481","exits":"3616","coordinates":[-122.12904,37.893394]},
{"name":"Lafayette (LAFY)","code":"LF","address":"3601 Deer Hill Road, Lafayette CA 94549","entries":"3481","exits":"3616","coordinates":[-122.12905,37.893394]},
{"name":"Lafayette (LAFY)","code":"LF","address":"3601 Deer Hill Road, Lafayette CA 94549","entries":"3481","exits":"3616","coordinates":[-122.12906,37.893394]},
{"name":"Lafayette (LAFY)","code":"LF","address":"3601 Deer Hill Road, Lafayette CA 94549","entries":"3481","exits":"3616","coordinates":[-122.12907,37.893394]},
{"name":"Lafayette (LAFY)","code":"LF","address":"3601 Deer Hill Road, Lafayette CA 94549","entries":"3481","exits":"3616","coordinates":[-122.12908,37.893394]},
{"name":"Lafayette (LAFY)","code":"LF","address":"3601 Deer Hill Road, Lafayette CA 94549","entries":"3481","exits":"3616","coordinates":[-122.12909,37.893394]},
{"name":"Lafayette (LAFY)","code":"LF","address":"3601 Deer Hill Road, Lafayette CA 94549","entries":"3481","exits":"3616","coordinates":[-122.12910,37.893394]},
{"name":"Lafayette (LAFY)","code":"LF","address":"3601 Deer Hill Road, Lafayette CA 94549","entries":"3481","exits":"3616","coordinates":[-122.12911,37.893394]},
{"name":"Lafayette (LAFY)","code":"LF","address":"3601 Deer Hill Road, Lafayette CA 94549","entries":"3481","exits":"3616","coordinates":[-122.12912,37.893394]},
{"name":"Lafayette (LAFY)","code":"LF","address":"3601 Deer Hill Road, Lafayette CA 94549","entries":"3481","exits":"3616","coordinates":[-122.12913,37.893394]},
{"name":"Lafayette (LAFY)","code":"LF","address":"3601 Deer Hill Road, Lafayette CA 94549","entries":"3481","exits":"3616","coordinates":[-122.12914,37.893394]},
{"name":"Lafayette (LAFY)","code":"LF","address":"3601 Deer Hill Road, Lafayette CA 94549","entries":"3481","exits":"3616","coordinates":[-122.12915,37.893394]},
{"name":"Lafayette (LAFY)","code":"LF","address":"3601 Deer Hill Road, Lafayette CA 94549","entries":"3481","exits":"3616","coordinates":[-122.12916,37.893394]},
{"name":"Lafayette (LAFY)","code":"LF","address":"3601 Deer Hill Road, Lafayette CA 94549","entries":"3481","exits":"3616","coordinates":[-122.12917,37.893394]},
{"name":"Lafayette (LAFY)","code":"LF","address":"3601 Deer Hill Road, Lafayette CA 94549","entries":"3481","exits":"3616","coordinates":[-122.12918,37.893394]},
{"name":"Lafayette (LAFY)","code":"LF","address":"3601 Deer Hill Road, Lafayette CA 94549","entries":"3481","exits":"3616","coordinates":[-122.12919,37.893394]},
{"name":"Lafayette (LAFY)","code":"LF","address":"3601 Deer Hill Road, Lafayette CA 94549","entries":"3481","exits":"3616","coordinates":[-122.12920,37.893394]},
{"name":"Lafayette (LAFY)","code":"LF","address":"3601 Deer Hill Road, Lafayette CA 94549","entries":"3481","exits":"3616","coordinates":[-122.12921,37.893394]},
{"name":"Lafayette (LAFY)","code":"LF","address":"3601 Deer Hill Road, Lafayette CA 94549","entries":"3481","exits":"3616","coordinates":[-122.12922,37.893394]},
{"name":"Lafayette (LAFY)","code":"LF","address":"3601 Deer Hill Road, Lafayette CA 94549","entries":"3481","exits":"3616","coordinates":[-122.12923,37.893394]},
{"name":"Lafayette (LAFY)","code":"LF","address":"3601 Deer Hill Road, Lafayette CA 94549","entries":"3481","exits":"3616","coordinates":[-122.12924,37.893394]},
{"name":"Lafayette (LAFY)","code":"LF","address":"3601 Deer Hill Road, Lafayette CA 94549","entries":"3481","exits":"3616","coordinates":[-122.12925,37.893394]},
{"name":"Lafayette (LAFY)","code":"LF","address":"3601 Deer Hill Road, Lafayette CA 94549","entries":"3481","exits":"3616","coordinates":[-122.12926,37.893394]},
{"name":"Lafayette (LAFY)","code":"LF","address":"3601 Deer Hill Road, Lafayette CA 94549","entries":"3481","exits":"3616","coordinates":[-122.12927,37.893394]},
{"name":"Lafayette (LAFY)","code":"LF","address":"3601 Deer Hill Road, Lafayette CA 94549","entries":"3481","exits":"3616","coordinates":[-122.12928,37.893394]},
{"name":"Lafayette (LAFY)","code":"LF","address":"3601 Deer Hill Road, Lafayette CA 94549","entries":"3481","exits":"3616","coordinates":[-122.12929,37.893394]},
{"name":"Lafayette (LAFY)","code":"LF","address":"3601 Deer Hill Road, Lafayette CA 94549","entries":"3481","exits":"3616","coordinates":[-122.12930,37.893394]},
{"name":"Lafayette (LAFY)","code":"LF","address":"3601 Deer Hill Road, Lafayette CA 94549","entries":"3481","exits":"3616","coordinates":[-122.12931,37.893394]},
{"name":"Lafayette (LAFY)","code":"LF","address":"3601 Deer Hill Road, Lafayette CA 94549","entries":"3481","exits":"3616","coordinates":[-122.12932,37.893394]},
{"name":"Lafayette (LAFY)","code":"LF","address":"3601 Deer Hill Road, Lafayette CA 94549","entries":"3481","exits":"3616","coordinates":[-122.12933,37.893394]},
{"name":"Lafayette (LAFY)","code":"LF","address":"3601 Deer Hill Road, Lafayette CA 94549","entries":"3481","exits":"3616","coordinates":[-122.12934,37.893394]},
{"name":"Lafayette (LAFY)","code":"LF","address":"3601 Deer Hill Road, Lafayette CA 94549","entries":"3481","exits":"3616","coordinates":[-122.12935,37.893394]},
{"name":"Lafayette (LAFY)","code":"LF","address":"3601 Deer Hill Road, Lafayette CA 94549","entries":"3481","exits":"3616","coordinates":[-122.12936,37.893394]},
{"name":"Lafayette (LAFY)","code":"LF","address":"3601 Deer Hill Road, Lafayette CA 94549","entries":"3481","exits":"3616","coordinates":[-122.12937,37.893394]},
{"name":"Lafayette (LAFY)","code":"LF","address":"3601 Deer Hill Road, Lafayette CA 94549","entries":"3481","exits":"3616","coordinates":[-122.12938,37.893394]},
{"name":"Lafayette (LAFY)","code":"LF","address":"3601 Deer Hill Road, Lafayette CA 94549","entries":"3481","exits":"3616","coordinates":[-122.12939,37.893394]},
{"name":"Lafayette (LAFY)","code":"LF","address":"3601 Deer Hill Road, Lafayette CA 94549","entries":"3481","exits":"3616","coordinates":[-122.12940,37.893394]},
{"name":"Lafayette (LAFY)","code":"LF","address":"3601 Deer Hill Road, Lafayette CA 94549","entries":"3481","exits":"3616","coordinates":[-122.12941,37.893394]},
{"name":"Lafayette (LAFY)","code":"LF","address":"3601 Deer Hill Road, Lafayette CA 94549","entries":"3481","exits":"3616","coordinates":[-122.12942,37.893394]},
{"name":"Lafayette (LAFY)","code":"LF","address":"3601 Deer Hill Road, Lafayette CA 94549","entries":"3481","exits":"3616","coordinates":[-122.12943,37.893394]},
{"name":"Lafayette (LAFY)","code":"LF","address":"3601 Deer Hill Road, Lafayette CA 94549","entries":"3481","exits":"3616","coordinates":[-122.12944,37.893394]},
{"name":"Lafayette (LAFY)","code":"LF","address":"3601 Deer Hill Road, Lafayette CA 94549","entries":"3481","exits":"3616","coordinates":[-122.12945,37.893394]},
{"name":"Lafayette (LAFY)","code":"LF","address":"3601 Deer Hill Road, Lafayette CA 94549","entries":"3481","exits":"3616","coordinates":[-122.12946,37.893394]},
{"name":"Lafayette (LAFY)","code":"LF","address":"3601 Deer Hill Road, Lafayette CA 94549","entries":"3481","exits":"3616","coordinates":[-122.12947,37.893394]},
{"name":"Lafayette (LAFY)","code":"LF","address":"3601 Deer Hill Road, Lafayette CA 94549","entries":"3481","exits":"3616","coordinates":[-122.12948,37.893394]},
{"name":"Lafayette (LAFY)","code":"LF","address":"3601 Deer Hill Road, Lafayette CA 94549","entries":"3481","exits":"3616","coordinates":[-122.12949,37.893394]},
{"name":"Lafayette (LAFY)","code":"LF","address":"3601 Deer Hill Road, Lafayette CA 94549","entries":"3481","exits":"3616","coordinates":[-122.12950,37.893394]},
{"name":"Lafayette (LAFY)","code":"LF","address":"3601 Deer Hill Road, Lafayette CA 94549","entries":"3481","exits":"3616","coordinates":[-122.12951,37.893394]},
{"name":"Lafayette (LAFY)","code":"LF","address":"3601 Deer Hill Road, Lafayette CA 94549","entries":"3481","exits":"3616","coordinates":[-122.12952,37.893394]},
{"name":"Lafayette (LAFY)","code":"LF","address":"3601 Deer Hill Road, Lafayette CA 94549","entries":"3481","exits":"3616","coordinates":[-122.12953,37.893394]},
{"name":"Lafayette (LAFY)","code":"LF","address":"3601 Deer Hill Road, Lafayette CA 94549","entries":"3481","exits":"3616","coordinates":[-122.12954,37.893394]},
{"name":"Lafayette (LAFY)","code":"LF","address":"3601 Deer Hill Road, Lafayette CA 94549","entries":"3481","exits":"3616","coordinates":[-122.12955,37.893394]},
{"name":"Lafayette (LAFY)","code":"LF","address":"3601 Deer Hill Road, Lafayette CA 94549","entries":"3481","exits":"3616","coordinates":[-122.12956,37.893394]},
{"name":"Lafayette (LAFY)","code":"LF","address":"3601 Deer Hill Road, Lafayette CA 94549","entries":"3481","exits":"3616","coordinates":[-122.12957,37.893394]},
{"name":"Lafayette (LAFY)","code":"LF","address":"3601 Deer Hill Road, Lafayette CA 94549","entries":"3481","exits":"3616","coordinates":[-122.12958,37.893394]},
{"name":"Lafayette (LAFY)","code":"LF","address":"3601 Deer Hill Road, Lafayette CA 94549","entries":"3481","exits":"3616","coordinates":[-122.12959,37.893394]},
{"name":"Lafayette (LAFY)","code":"LF","address":"3601 Deer Hill Road, Lafayette CA 94549","entries":"3481","exits":"3616","coordinates":[-122.12960,37.893394]},
{"name":"Lafayette (LAFY)","code":"LF","address":"3601 Deer Hill Road, Lafayette CA 94549","entries":"3481","exits":"3616","coordinates":[-122.12961,37.893394]},
{"name":"Lafayette (LAFY)","code":"LF","address":"3601 Deer Hill Road, Lafayette CA 94549","entries":"3481","exits":"3616","coordinates":[-122.12962,37.893394]},
{"name":"Lafayette (LAFY)","code":"LF","address":"3601 Deer Hill Road, Lafayette CA 94549","entries":"3481","exits":"3616","coordinates":[-122.12963,37.893394]},
{"name":"Lafayette (LAFY)","code":"LF","address":"3601 Deer Hill Road, Lafayette CA 94549","entries":"3481","exits":"3616","coordinates":[-122.12964,37.893394]},
{"name":"Lafayette (LAFY)","code":"LF","address":"3601 Deer Hill Road, Lafayette CA 94549","entries":"3481","exits":"3616","coordinates":[-122.12965,37.893394]},
{"name":"Lafayette (LAFY)","code":"LF","address":"3601 Deer Hill Road, Lafayette CA 94549","entries":"3481","exits":"3616","coordinates":[-122.12966,37.893394]},
{"name":"Lafayette (LAFY)","code":"LF","address":"3601 Deer Hill Road, Lafayette CA 94549","entries":"3481","exits":"3616","coordinates":[-122.12967,37.893394]},
{"name":"Lafayette (LAFY)","code":"LF","address":"3601 Deer Hill Road, Lafayette CA 94549","entries":"3481","exits":"3616","coordinates":[-122.12968,37.893394]},
{"name":"Lafayette (LAFY)","code":"LF","address":"3601 Deer Hill Road, Lafayette CA 94549","entries":"3481","exits":"3616","coordinates":[-122.12969,37.893394]},
{"name":"Lafayette (LAFY)","code":"LF","address":"3601 Deer Hill Road, Lafayette CA 94549","entries":"3481","exits":"3616","coordinates":[-122.12970,37.893394]},
{"name":"Lafayette (LAFY)","code":"LF","address":"3601 Deer Hill Road, Lafayette CA 94549","entries":"3481","exits":"3616","coordinates":[-122.12971,37.893394]},
{"name":"Lafayette (LAFY)","code":"LF","address":"3601 Deer Hill Road, Lafayette CA 94549","entries":"3481","exits":"3616","coordinates":[-122.12972,37.893394]},
{"name":"Lafayette (LAFY)","code":"LF","address":"3601 Deer Hill Road, Lafayette CA 94549","entries":"3481","exits":"3616","coordinates":[-122.12973,37.893394]},
{"name":"Lafayette (LAFY)","code":"LF","address":"3601 Deer Hill Road, Lafayette CA 94549","entries":"3481","exits":"3616","coordinates":[-122.12974,37.893394]},
{"name":"Lafayette (LAFY)","code":"LF","address":"3601 Deer Hill Road, Lafayette CA 94549","entries":"3481","exits":"3616","coordinates":[-122.12975,37.893394]},
{"name":"Lafayette (LAFY)","code":"LF","address":"3601 Deer Hill Road, Lafayette CA 94549","entries":"3481","exits":"3616","coordinates":[-122.12976,37.893394]},
{"name":"Lafayette (LAFY)","code":"LF","address":"3601 Deer Hill Road, Lafayette CA 94549","entries":"3481","exits":"3616","coordinates":[-122.12977,37.893394]},
{"name":"Lafayette (LAFY)","code":"LF","address":"3601 Deer Hill Road, Lafayette CA 94549","entries":"3481","exits":"3616","coordinates":[-122.12978,37.893394]},
{"name":"Lafayette (LAFY)","code":"LF","address":"3601 Deer Hill Road, Lafayette CA 94549","entries":"3481","exits":"3616","coordinates":[-122.12979,37.893394]},
{"name":"Lafayette (LAFY)","code":"LF","address":"3601 Deer Hill Road, Lafayette CA 94549","entries":"3481","exits":"3616","coordinates":[-122.12980,37.893394]},
{"name":"Lafayette (LAFY)","code":"LF","address":"3601 Deer Hill Road, Lafayette CA 94549","entries":"3481","exits":"3616","coordinates":[-122.12981,37.893394]},
{"name":"Lafayette (LAFY)","code":"LF","address":"3601 Deer Hill Road, Lafayette CA 94549","entries":"3481","exits":"3616","coordinates":[-122.12982,37.893394]},
{"name":"Lafayette (LAFY)","code":"LF","address":"3601 Deer Hill Road, Lafayette CA 94549","entries":"3481","exits":"3616","coordinates":[-122.12983,37.893394]},
{"name":"Lafayette (LAFY)","code":"LF","address":"3601 Deer Hill Road, Lafayette CA 94549","entries":"3481","exits":"3616","coordinates":[-122.12984,37.893394]},
{"name":"Lafayette (LAFY)","code":"LF","address":"3601 Deer Hill Road, Lafayette CA 94549","entries":"3481","exits":"3616","coordinates":[-122.12985,37.893394]},
{"name":"Lafayette (LAFY)","code":"LF","address":"3601 Deer Hill Road, Lafayette CA 94549","entries":"3481","exits":"3616","coordinates":[-122.12986,37.893394]},
{"name":"Lafayette (LAFY)","code":"LF","address":"3601 Deer Hill Road, Lafayette CA 94549","entries":"3481","exits":"3616","coordinates":[-122.12987,37.893394]},
{"name":"Lafayette (LAFY)","code":"LF","address":"3601 Deer Hill Road, Lafayette CA 94549","entries":"3481","exits":"3616","coordinates":[-122.12988,37.893394]},
{"name":"Lafayette (LAFY)","code":"LF","address":"3601 Deer Hill Road, Lafayette CA 94549","entries":"3481","exits":"3616","coordinates":[-122.12989,37.893394]},
{"name":"Lafayette (LAFY)","code":"LF","address":"3601 Deer Hill Road, Lafayette CA 94549","entries":"3481","exits":"3616","coordinates":[-122.12990,37.893394]},
{"name":"Lafayette (LAFY)","code":"LF","address":"3601 Deer Hill Road, Lafayette CA 94549","entries":"3481","exits":"3616","coordinates":[-122.12991,37.893394]},
{"name":"Lafayette (LAFY)","code":"LF","address":"3601 Deer Hill Road, Lafayette CA 94549","entries":"3481","exits":"3616","coordinates":[-122.12992,37.893394]},
{"name":"Lafayette (LAFY)","code":"LF","address":"3601 Deer Hill Road, Lafayette CA 94549","entries":"3481","exits":"3616","coordinates":[-122.12993,37.893394]},
{"name":"Lafayette (LAFY)","code":"LF","address":"3601 Deer Hill Road, Lafayette CA 94549","entries":"3481","exits":"3616","coordinates":[-122.12994,37.893394]},
{"name":"Lafayette (LAFY)","code":"LF","address":"3601 Deer Hill Road, Lafayette CA 94549","entries":"3481","exits":"3616","coordinates":[-122.12995,37.893394]},
{"name":"Lafayette (LAFY)","code":"LF","address":"3601 Deer Hill Road, Lafayette CA 94549","entries":"3481","exits":"3616","coordinates":[-122.12996,37.893394]},
{"name":"Lafayette (LAFY)","code":"LF","address":"3601 Deer Hill Road, Lafayette CA 94549","entries":"3481","exits":"3616","coordinates":[-122.12997,37.893394]},
{"name":"Lafayette (LAFY)","code":"LF","address":"3601 Deer Hill Road, Lafayette CA 94549","entries":"3481","exits":"3616","coordinates":[-122.12998,37.893394]},
{"name":"Lafayette (LAFY)","code":"LF","address":"3601 Deer Hill Road, Lafayette CA 94549","entries":"3481","exits":"3616","coordinates":[-122.12999,37.893394]},
{"name":"Lafayette (LAFY)","code":"LF","address":"3601 Deer Hill Road, Lafayette CA 94549","entries":"3481","exits":"3616","coordinates":[-122.121000,37.893394]},
{"name":"Lafayette (LAFY)","code":"LF","address":"3601 Deer Hill Road, Lafayette CA 94549","entries":"3481","exits":"3616","coordinates":[-122.121001,37.893394]},
{"name":"Lafayette (LAFY)","code":"LF","address":"3601 Deer Hill Road, Lafayette CA 94549","entries":"3481","exits":"3616","coordinates":[-122.121002,37.893394]},
{"name":"Lafayette (LAFY)","code":"LF","address":"3601 Deer Hill Road, Lafayette CA 94549","entries":"3481","exits":"3616","coordinates":[-122.121003,37.893394]},
{"name":"Lafayette (LAFY)","code":"LF","address":"3601 Deer Hill Road, Lafayette CA 94549","entries":"3481","exits":"3616","coordinates":[-122.121004,37.893394]},
{"name":"Lafayette (LAFY)","code":"LF","address":"3601 Deer Hill Road, Lafayette CA 94549","entries":"3481","exits":"3616","coordinates":[-122.121005,37.893394]},
{"name":"Lafayette (LAFY)","code":"LF","address":"3601 Deer Hill Road, Lafayette CA 94549","entries":"3481","exits":"3616","coordinates":[-122.121006,37.893394]},
{"name":"Lafayette (LAFY)","code":"LF","address":"3601 Deer Hill Road, Lafayette CA 94549","entries":"3481","exits":"3616","coordinates":[-122.121007,37.893394]},
{"name":"Lafayette (LAFY)","code":"LF","address":"3601 Deer Hill Road, Lafayette CA 94549","entries":"3481","exits":"3616","coordinates":[-122.121008,37.893394]},
{"name":"Lafayette (LAFY)","code":"LF","address":"3601 Deer Hill Road, Lafayette CA 94549","entries":"3481","exits":"3616","coordinates":[-122.121009,37.893394]},
{"name":"Lafayette (LAFY)","code":"LF","address":"3601 Deer Hill Road, Lafayette CA 94549","entries":"3481","exits":"3616","coordinates":[-122.121010,37.893394]},
{"name":"Lafayette (LAFY)","code":"LF","address":"3601 Deer Hill Road, Lafayette CA 94549","entries":"3481","exits":"3616","coordinates":[-122.121011,37.893394]},
{"name":"Lafayette (LAFY)","code":"LF","address":"3601 Deer Hill Road, Lafayette CA 94549","entries":"3481","exits":"3616","coordinates":[-122.121012,37.893394]},
{"name":"Lafayette (LAFY)","code":"LF","address":"3601 Deer Hill Road, Lafayette CA 94549","entries":"3481","exits":"3616","coordinates":[-122.121013,37.893394]},
{"name":"Lafayette (LAFY)","code":"LF","address":"3601 Deer Hill Road, Lafayette CA 94549","entries":"3481","exits":"3616","coordinates":[-122.121014,37.893394]},
{"name":"Lafayette (LAFY)","code":"LF","address":"3601 Deer Hill Road, Lafayette CA 94549","entries":"3481","exits":"3616","coordinates":[-122.121015,37.893394]},
{"name":"Lafayette (LAFY)","code":"LF","address":"3601 Deer Hill Road, Lafayette CA 94549","entries":"3481","exits":"3616","coordinates":[-122.121016,37.893394]},
{"name":"Lafayette (LAFY)","code":"LF","address":"3601 Deer Hill Road, Lafayette CA 94549","entries":"3481","exits":"3616","coordinates":[-122.121017,37.893394]},
{"name":"Lafayette (LAFY)","code":"LF","address":"3601 Deer Hill Road, Lafayette CA 94549","entries":"3481","exits":"3616","coordinates":[-122.121018,37.893394]},
{"name":"Lafayette (LAFY)","code":"LF","address":"3601 Deer Hill Road, Lafayette CA 94549","entries":"3481","exits":"3616","coordinates":[-122.121019,37.893394]},
{"name":"Lafayette (LAFY)","code":"LF","address":"3601 Deer Hill Road, Lafayette CA 94549","entries":"3481","exits":"3616","coordinates":[-122.121020,37.893394]},
{"name":"Lafayette (LAFY)","code":"LF","address":"3601 Deer Hill Road, Lafayette CA 94549","entries":"3481","exits":"3616","coordinates":[-122.121021,37.893394]},
{"name":"Lafayette (LAFY)","code":"LF","address":"3601 Deer Hill Road, Lafayette CA 94549","entries":"3481","exits":"3616","coordinates":[-122.121022,37.893394]},
{"name":"Lafayette (LAFY)","code":"LF","address":"3601 Deer Hill Road, Lafayette CA 94549","entries":"3481","exits":"3616","coordinates":[-122.121023,37.893394]},
{"name":"Lafayette (LAFY)","code":"LF","address":"3601 Deer Hill Road, Lafayette CA 94549","entries":"3481","exits":"3616","coordinates":[-122.121024,37.893394]},
{"name":"Lafayette (LAFY)","code":"LF","address":"3601 Deer Hill Road, Lafayette CA 94549","entries":"3481","exits":"3616","coordinates":[-122.121025,37.893394]},
{"name":"Lafayette (LAFY)","code":"LF","address":"3601 Deer Hill Road, Lafayette CA 94549","entries":"3481","exits":"3616","coordinates":[-122.121026,37.893394]},
{"name":"Lafayette (LAFY)","code":"LF","address":"3601 Deer Hill Road, Lafayette CA 94549","entries":"3481","exits":"3616","coordinates":[-122.121027,37.893394]},
{"name":"Lafayette (LAFY)","code":"LF","address":"3601 Deer Hill Road, Lafayette CA 94549","entries":"3481","exits":"3616","coordinates":[-122.121028,37.893394]},
{"name":"Lafayette (LAFY)","code":"LF","address":"3601 Deer Hill Road, Lafayette CA 94549","entries":"3481","exits":"3616","coordinates":[-122.121029,37.893394]},
{"name":"Lafayette (LAFY)","code":"LF","address":"3601 Deer Hill Road, Lafayette CA 94549","entries":"3481","exits":"3616","coordinates":[-122.121030,37.893394]},
{"name":"Lafayette (LAFY)","code":"LF","address":"3601 Deer Hill Road, Lafayette CA 94549","entries":"3481","exits":"3616","coordinates":[-122.121031,37.893394]},
{"name":"Lafayette (LAFY)","code":"LF","address":"3601 Deer Hill Road, Lafayette CA 94549","entries":"3481","exits":"3616","coordinates":[-122.121032,37.893394]},
{"name":"Lafayette (LAFY)","code":"LF","address":"3601 Deer Hill Road, Lafayette CA 94549","entries":"3481","exits":"3616","coordinates":[-122.121033,37.893394]},
{"name":"Lafayette (LAFY)","code":"LF","address":"3601 Deer Hill Road, Lafayette CA 94549","entries":"3481","exits":"3616","coordinates":[-122.121034,37.893394]},
{"name":"Lafayette (LAFY)","code":"LF","address":"3601 Deer Hill Road, Lafayette CA 94549","entries":"3481","exits":"3616","coordinates":[-122.121035,37.893394]},
{"name":"Lafayette (LAFY)","code":"LF","address":"3601 Deer Hill Road, Lafayette CA 94549","entries":"3481","exits":"3616","coordinates":[-122.121036,37.893394]},
{"name":"Lafayette (LAFY)","code":"LF","address":"3601 Deer Hill Road, Lafayette CA 94549","entries":"3481","exits":"3616","coordinates":[-122.121037,37.893394]},
{"name":"Lafayette (LAFY)","code":"LF","address":"3601 Deer Hill Road, Lafayette CA 94549","entries":"3481","exits":"3616","coordinates":[-122.121038,37.893394]},
{"name":"Lafayette (LAFY)","code":"LF","address":"3601 Deer Hill Road, Lafayette CA 94549","entries":"3481","exits":"3616","coordinates":[-122.121039,37.893394]},
{"name":"Lafayette (LAFY)","code":"LF","address":"3601 Deer Hill Road, Lafayette CA 94549","entries":"3481","exits":"3616","coordinates":[-122.121040,37.893394]},
{"name":"Lafayette (LAFY)","code":"LF","address":"3601 Deer Hill Road, Lafayette CA 94549","entries":"3481","exits":"3616","coordinates":[-122.121041,37.893394]},
{"name":"Lafayette (LAFY)","code":"LF","address":"3601 Deer Hill Road, Lafayette CA 94549","entries":"3481","exits":"3616","coordinates":[-122.121042,37.893394]},
{"name":"Lafayette (LAFY)","code":"LF","address":"3601 Deer Hill Road, Lafayette CA 94549","entries":"3481","exits":"3616","coordinates":[-122.121043,37.893394]},
{"name":"Lafayette (LAFY)","code":"LF","address":"3601 Deer Hill Road, Lafayette CA 94549","entries":"3481","exits":"3616","coordinates":[-122.121044,37.893394]},
{"name":"Lafayette (LAFY)","code":"LF","address":"3601 Deer Hill Road, Lafayette CA 94549","entries":"3481","exits":"3616","coordinates":[-122.121045,37.893394]},
{"name":"Lafayette (LAFY)","code":"LF","address":"3601 Deer Hill Road, Lafayette CA 94549","entries":"3481","exits":"3616","coordinates":[-122.121046,37.893394]},
{"name":"Lafayette (LAFY)","code":"LF","address":"3601 Deer Hill Road, Lafayette CA 94549","entries":"3481","exits":"3616","coordinates":[-122.121047,37.893394]},
{"name":"Lafayette (LAFY)","code":"LF","address":"3601 Deer Hill Road, Lafayette CA 94549","entries":"3481","exits":"3616","coordinates":[-122.121048,37.893394]},
{"name":"Lafayette (LAFY)","code":"LF","address":"3601 Deer Hill Road, Lafayette CA 94549","entries":"3481","exits":"3616","coordinates":[-122.121049,37.893394]},
{"name":"Lafayette (LAFY)","code":"LF","address":"3601 Deer Hill Road, Lafayette CA 94549","entries":"3481","exits":"3616","coordinates":[-122.121050,37.893394]},
{"name":"Lafayette (LAFY)","code":"LF","address":"3601 Deer Hill Road, Lafayette CA 94549","entries":"3481","exits":"3616","coordinates":[-122.121051,37.893394]},
{"name":"Lafayette (LAFY)","code":"LF","address":"3601 Deer Hill Road, Lafayette CA 94549","entries":"3481","exits":"3616","coordinates":[-122.121052,37.893394]},
{"name":"Lafayette (LAFY)","code":"LF","address":"3601 Deer Hill Road, Lafayette CA 94549","entries":"3481","exits":"3616","coordinates":[-122.121053,37.893394]},
{"name":"Lafayette (LAFY)","code":"LF","address":"3601 Deer Hill Road, Lafayette CA 94549","entries":"3481","exits":"3616","coordinates":[-122.121054,37.893394]},
{"name":"Lafayette (LAFY)","code":"LF","address":"3601 Deer Hill Road, Lafayette CA 94549","entries":"3481","exits":"3616","coordinates":[-122.121055,37.893394]},
{"name":"Lafayette (LAFY)","code":"LF","address":"3601 Deer Hill Road, Lafayette CA 94549","entries":"3481","exits":"3616","coordinates":[-122.121056,37.893394]}
]
