[
{"name":"Lafayette (LAFY)","code":"LF","address":"3601 Deer Hill Road, Lafayette CA 94549","entries":"3481","exits":"3616","coordinates":[-122.12,37.893394]},
{"name":"Lafayette (LAFY)","code":"LF","address":"3601 Deer Hill Road, Lafayette CA 94549","entries":"3481","exits":"3616","coordinates":[-122.2,37.893394]},
{"name":"Lafayette (LAFY)","code":"LF","address":"3601 Deer Hill Road, Lafayette CA 94549","entries":"3481","exits":"3616","coordinates":[-122.3,37.893394]},
{"name":"Lafayette (LAFY)","code":"LF","address":"3601 Deer Hill Road, Lafayette CA 94549","entries":"3481","exits":"3616","coordinates":[-122.4,37.893394]},
{"name":"Lafayette (LAFY)","code":"LF","address":"3601 Deer Hill Road, Lafayette CA 94549","entries":"3481","exits":"3616","coordinates":[-122.5,37.893394]},
{"name":"Lafayette (LAFY)","code":"LF","address":"3601 Deer Hill Road, Lafayette CA 94549","entries":"3481","exits":"3616","coordinates":[-122.6,37.893394]},
{"name":"Lafayette (LAFY)","code":"LF","address":"3601 Deer Hill Road, Lafayette CA 94549","entries":"3481","exits":"3616","coordinates":[-122.7,37.893394]},
{"name":"Lafayette (LAFY)","code":"LF","address":"3601 Deer Hill Road, Lafayette CA 94549","entries":"3481","exits":"3616","coordinates":[-122.8,37.893394]},
{"name":"Lafayette (LAFY)","code":"LF","address":"3601 Deer Hill Road, Lafayette CA 94549","entries":"3481","exits":"3616","coordinates":[-122.9,37.893394]},
{"name":"Lafayette (LAFY)","code":"LF","address":"3601 Deer Hill Road, Lafayette CA 94549","entries":"3481","exits":"3616","coordinates":[-122.10,37.893394]},
{"name":"Lafayette (LAFY)","code":"LF","address":"3601 Deer Hill Road, Lafayette CA 94549","entries":"3481","exits":"3616","coordinates":[-122.11,37.893394]},
{"name":"Lafayette (LAFY)","code":"LF","address":"3601 Deer Hill Road, Lafayette CA 94549","entries":"3481","exits":"3616","coordinates":[-122.12,37.893394]},
{"name":"Lafayette (LAFY)","code":"LF","address":"3601 Deer Hill Road, Lafayette CA 94549","entries":"3481","exits":"3616","coordinates":[-122.13,37.893394]},
{"name":"Lafayette (LAFY)","code":"LF","address":"3601 Deer Hill Road, Lafayette CA 94549","entries":"3481","exits":"3616","coordinates":[-122.14,37.893394]},
{"name":"Lafayette (LAFY)","code":"LF","address":"3601 Deer Hill Road, Lafayette CA 94549","entries":"3481","exits":"3616","coordinates":[-122.15,37.893394]},
{"name":"Lafayette (LAFY)","code":"LF","address":"3601 Deer Hill Road, Lafayette CA 94549","entries":"3481","exits":"3616","coordinates":[-122.16,37.893394]},
{"name":"Lafayette (LAFY)","code":"LF","address":"3601 Deer Hill Road, Lafayette CA 94549","entries":"3481","exits":"3616","coordinates":[-122.17,37.893394]},
{"name":"Lafayette (LAFY)","code":"LF","address":"3601 Deer Hill Road, Lafayette CA 94549","entries":"3481","exits":"3616","coordinates":[-122.18,37.893394]},
{"name":"Lafayette (LAFY)","code":"LF","address":"3601 Deer Hill Road, Lafayette CA 94549","entries":"3481","exits":"3616","coordinates":[-122.19,37.893394]},
{"name":"Lafayette (LAFY)","code":"LF","address":"3601 Deer Hill Road, Lafayette CA 94549","entries":"3481","exits":"3616","coordinates":[-122.20,37.893394]},
{"name":"Lafayette (LAFY)","code":"LF","address":"3601 Deer Hill Road, Lafayette CA 94549","entries":"3481","exits":"3616","coordinates":[-122.21,37.893394]},
{"name":"Lafayette (LAFY)","code":"LF","address":"3601 Deer Hill Road, Lafayette CA 94549","entries":"3481","exits":"3616","coordinates":[-122.22,37.893394]},
{"name":"Lafayette (LAFY)","code":"LF","address":"3601 Deer Hill Road, Lafayette CA 94549","entries":"3481","exits":"3616","coordinates":[-122.23,37.893394]},
{"name":"Lafayette (LAFY)","code":"LF","address":"3601 Deer Hill Road, Lafayette CA 94549","entries":"3481","exits":"3616","coordinates":[-122.24,37.893394]},
{"name":"Lafayette (LAFY)","code":"LF","address":"3601 Deer Hill Road, Lafayette CA 94549","entries":"3481","exits":"3616","coordinates":[-122.25,37.893394]},
{"name":"Lafayette (LAFY)","code":"LF","address":"3601 Deer Hill Road, Lafayette CA 94549","entries":"3481","exits":"3616","coordinates":[-122.26,37.893394]},
{"name":"Lafayette (LAFY)","code":"LF","address":"3601 Deer Hill Road, Lafayette CA 94549","entries":"3481","exits":"3616","coordinates":[-122.27,37.893394]},
{"name":"Lafayette (LAFY)","code":"LF","address":"3601 Deer Hill Road, Lafayette CA 94549","entries":"3481","exits":"3616","coordinates":[-122.28,37.893394]},
{"name":"Lafayette (LAFY)","code":"LF","address":"3601 Deer Hill Road, Lafayette CA 94549","entries":"3481","exits":"3616","coordinates":[-122.29,37.893394]},
{"name":"Lafayette (LAFY)","code":"LF","address":"3601 Deer Hill Road, Lafayette CA 94549","entries":"3481","exits":"3616","coordinates":[-122.30,37.893394]},
{"name":"Lafayette (LAFY)","code":"LF","address":"3601 Deer Hill Road, Lafayette CA 94549","entries":"3481","exits":"3616","coordinates":[-122.31,37.893394]},
{"name":"Lafayette (LAFY)","code":"LF","address":"3601 Deer Hill Road, Lafayette CA 94549","entries":"3481","exits":"3616","coordinates":[-122.32,37.893394]},
{"name":"Lafayette (LAFY)","code":"LF","address":"3601 Deer Hill Road, Lafayette CA 94549","entries":"3481","exits":"3616","coordinates":[-122.33,37.893394]},
{"name":"Lafayette (LAFY)","code":"LF","address":"3601 Deer Hill Road, Lafayette CA 94549","entries":"3481","exits":"3616","coordinates":[-122.34,37.893394]},
{"name":"Lafayette (LAFY)","code":"LF","address":"3601 Deer Hill Road, Lafayette CA 94549","entries":"3481","exits":"3616","coordinates":[-122.35,37.893394]},
{"name":"Lafayette (LAFY)","code":"LF","address":"3601 Deer Hill Road, Lafayette CA 94549","entries":"3481","exits":"3616","coordinates":[-122.36,37.893394]},
{"name":"Lafayette (LAFY)","code":"LF","address":"3601 Deer Hill Road, Lafayette CA 94549","entries":"3481","exits":"3616","coordinates":[-122.37,37.893394]},
{"name":"Lafayette (LAFY)","code":"LF","address":"3601 Deer Hill Road, Lafayette CA 94549","entries":"3481","exits":"3616","coordinates":[-122.38,37.893394]},
{"name":"Lafayette (LAFY)","code":"LF","address":"3601 Deer Hill Road, Lafayette CA 94549","entries":"3481","exits":"3616","coordinates":[-122.39,37.893394]},
{"name":"Lafayette (LAFY)","code":"LF","address":"3601 Deer Hill Road, Lafayette CA 94549","entries":"3481","exits":"3616","coordinates":[-122.40,37.893394]},
{"name":"Lafayette (LAFY)","code":"LF","address":"3601 Deer Hill Road, Lafayette CA 94549","entries":"3481","exits":"3616","coordinates":[-122.41,37.893394]},
{"name":"Lafayette (LAFY)","code":"LF","address":"3601 Deer Hill Road, Lafayette CA 94549","entries":"3481","exits":"3616","coordinates":[-122.42,37.893394]},
{"name":"Lafayette (LAFY)","code":"LF","address":"3601 Deer Hill Road, Lafayette CA 94549","entries":"3481","exits":"3616","coordinates":[-122.43,37.893394]},
{"name":"Lafayette (LAFY)","code":"LF","address":"3601 Deer Hill Road, Lafayette CA 94549","entries":"3481","exits":"3616","coordinates":[-122.44,37.893394]},
{"name":"Lafayette (LAFY)","code":"LF","address":"3601 Deer Hill Road, Lafayette CA 94549","entries":"3481","exits":"3616","coordinates":[-122.45,37.893394]},
{"name":"Lafayette (LAFY)","code":"LF","address":"3601 Deer Hill Road, Lafayette CA 94549","entries":"3481","exits":"3616","coordinates":[-122.46,37.893394]},
{"name":"Lafayette (LAFY)","code":"LF","address":"3601 Deer Hill Road, Lafayette CA 94549","entries":"3481","exits":"3616","coordinates":[-122.47,37.893394]},
{"name":"Lafayette (LAFY)","code":"LF","address":"3601 Deer Hill Road, Lafayette CA 94549","entries":"3481","exits":"3616","coordinates":[-122.48,37.893394]},
{"name":"Lafayette (LAFY)","code":"LF","address":"3601 Deer Hill Road, Lafayette CA 94549","entries":"3481","exits":"3616","coordinates":[-122.49,37.893394]},
{"name":"Lafayette (LAFY)","code":"LF","address":"3601 Deer Hill Road, Lafayette CA 94549","entries":"3481","exits":"3616","coordinates":[-122.50,37.893394]},
{"name":"Lafayette (LAFY)","code":"LF","address":"3601 Deer Hill Road, Lafayette CA 94549","entries":"3481","exits":"3616","coordinates":[-122.51,37.893394]},
{"name":"Lafayette (LAFY)","code":"LF","address":"3601 Deer Hill Road, Lafayette CA 94549","entries":"3481","exits":"3616","coordinates":[-122.52,37.893394]},
{"name":"Lafayette (LAFY)","code":"LF","address":"3601 Deer Hill Road, Lafayette CA 94549","entries":"3481","exits":"3616","coordinates":[-122.53,37.893394]},
{"name":"Lafayette (LAFY)","code":"LF","address":"3601 Deer Hill Road, Lafayette CA 94549","entries":"3481","exits":"3616","coordinates":[-122.54,37.893394]},
{"name":"Lafayette (LAFY)","code":"LF","address":"3601 Deer Hill Road, Lafayette CA 94549","entries":"3481","exits":"3616","coordinates":[-122.55,37.893394]},
{"name":"Lafayette (LAFY)","code":"LF","address":"3601 Deer Hill Road, Lafayette CA 94549","entries":"3481","exits":"3616","coordinates":[-122.56,37.893394]},
{"name":"Lafayette (LAFY)","code":"LF","address":"3601 Deer Hill Road, Lafayette CA 94549","entries":"3481","exits":"3616","coordinates":[-122.57,37.893394]},
{"name":"Lafayette (LAFY)","code":"LF","address":"3601 Deer Hill Road, Lafayette CA 94549","entries":"3481","exits":"3616","coordinates":[-122.58,37.893394]},
{"name":"Lafayette (LAFY)","code":"LF","address":"3601 Deer Hill Road, Lafayette CA 94549","entries":"3481","exits":"3616","coordinates":[-122.59,37.893394]},
{"name":"Lafayette (LAFY)","code":"LF","address":"3601 Deer Hill Road, Lafayette CA 94549","entries":"3481","exits":"3616","coordinates":[-122.60,37.893394]},
{"name":"Lafayette (LAFY)","code":"LF","address":"3601 Deer Hill Road, Lafayette CA 94549","entries":"3481","exits":"3616","coordinates":[-122.61,37.893394]},
{"name":"Lafayette (LAFY)","code":"LF","address":"3601 Deer Hill Road, Lafayette CA 94549","entries":"3481","exits":"3616","coordinates":[-122.62,37.893394]},
{"name":"Lafayette (LAFY)","code":"LF","address":"3601 Deer Hill Road, Lafayette CA 94549","entries":"3481","exits":"3616","coordinates":[-122.63,37.893394]},
{"name":"Lafayette (LAFY)","code":"LF","address":"3601 Deer Hill Road, Lafayette CA 94549","entries":"3481","exits":"3616","coordinates":[-122.64,37.893394]},
{"name":"Lafayette (LAFY)","code":"LF","address":"3601 Deer Hill Road, Lafayette CA 94549","entries":"3481","exits":"3616","coordinates":[-122.65,37.893394]},
{"name":"Lafayette (LAFY)","code":"LF","address":"3601 Deer Hill Road, Lafayette CA 94549","entries":"3481","exits":"3616","coordinates":[-122.66,37.893394]},
{"name":"Lafayette (LAFY)","code":"LF","address":"3601 Deer Hill Road, Lafayette CA 94549","entries":"3481","exits":"3616","coordinates":[-122.67,37.893394]},
{"name":"Lafayette (LAFY)","code":"LF","address":"3601 Deer Hill Road, Lafayette CA 94549","entries":"3481","exits":"3616","coordinates":[-122.68,37.893394]},
{"name":"Lafayette (LAFY)","code":"LF","address":"3601 Deer Hill Road, Lafayette CA 94549","entries":"3481","exits":"3616","coordinates":[-122.69,37.893394]},
{"name":"Lafayette (LAFY)","code":"LF","address":"3601 Deer Hill Road, Lafayette CA 94549","entries":"3481","exits":"3616","coordinates":[-122.70,37.893394]},
{"name":"Lafayette (LAFY)","code":"LF","address":"3601 Deer Hill Road, Lafayette CA 94549","entries":"3481","exits":"3616","coordinates":[-122.71,37.893394]},
{"name":"Lafayette (LAFY)","code":"LF","address":"3601 Deer Hill Road, Lafayette CA 94549","entries":"3481","exits":"3616","coordinates":[-122.72,37.893394]},
{"name":"Lafayette (LAFY)","code":"LF","address":"3601 Deer Hill Road, Lafayette CA 94549","entries":"3481","exits":"3616","coordinates":[-122.73,37.893394]},
{"name":"Lafayette (LAFY)","code":"LF","address":"3601 Deer Hill Road, Lafayette CA 94549","entries":"3481","exits":"3616","coordinates":[-122.74,37.893394]},
{"name":"Lafayette (LAFY)","code":"LF","address":"3601 Deer Hill Road, Lafayette CA 94549","entries":"3481","exits":"3616","coordinates":[-122.75,37.893394]},
{"name":"Lafayette (LAFY)","code":"LF","address":"3601 Deer Hill Road, Lafayette CA 94549","entries":"3481","exits":"3616","coordinates":[-122.76,37.893394]},
{"name":"Lafayette (LAFY)","code":"LF","address":"3601 Deer Hill Road, Lafayette CA 94549","entries":"3481","exits":"3616","coordinates":[-122.77,37.893394]},
{"name":"Lafayette (LAFY)","code":"LF","address":"3601 Deer Hill Road, Lafayette CA 94549","entries":"3481","exits":"3616","coordinates":[-122.78,37.893394]},
{"name":"Lafayette (LAFY)","code":"LF","address":"3601 Deer Hill Road, Lafayette CA 94549","entries":"3481","exits":"3616","coordinates":[-122.79,37.893394]},
{"name":"Lafayette (LAFY)","code":"LF","address":"3601 Deer Hill Road, Lafayette CA 94549","entries":"3481","exits":"3616","coordinates":[-122.80,37.893394]},
{"name":"Lafayette (LAFY)","code":"LF","address":"3601 Deer Hill Road, Lafayette CA 94549","entries":"3481","exits":"3616","coordinates":[-122.81,37.893394]},
{"name":"Lafayette (LAFY)","code":"LF","address":"3601 Deer Hill Road, Lafayette CA 94549","entries":"3481","exits":"3616","coordinates":[-122.82,37.893394]},
{"name":"Lafayette (LAFY)","code":"LF","address":"3601 Deer Hill Road, Lafayette CA 94549","entries":"3481","exits":"3616","coordinates":[-122.83,37.893394]},
{"name":"Lafayette (LAFY)","code":"LF","address":"3601 Deer Hill Road, Lafayette CA 94549","entries":"3481","exits":"3616","coordinates":[-122.84,37.893394]},
{"name":"Lafayette (LAFY)","code":"LF","address":"3601 Deer Hill Road, Lafayette CA 94549","entries":"3481","exits":"3616","coordinates":[-122.85,37.893394]},
{"name":"Lafayette (LAFY)","code":"LF","address":"3601 Deer Hill Road, Lafayette CA 94549","entries":"3481","exits":"3616","coordinates":[-122.86,37.893394]},
{"name":"Lafayette (LAFY)","code":"LF","address":"3601 Deer Hill Road, Lafayette CA 94549","entries":"3481","exits":"3616","coordinates":[-122.87,37.893394]},
{"name":"Lafayette (LAFY)","code":"LF","address":"3601 Deer Hill Road, Lafayette CA 94549","entries":"3481","exits":"3616","coordinates":[-122.88,37.893394]},
{"name":"Lafayette (LAFY)","code":"LF","address":"3601 Deer Hill Road, Lafayette CA 94549","entries":"3481","exits":"3616","coordinates":[-122.89,37.893394]},
{"name":"Lafayette (LAFY)","code":"LF","address":"3601 Deer Hill Road, Lafayette CA 94549","entries":"3481","exits":"3616","coordinates":[-122.90,37.893394]},
{"name":"Lafayette (LAFY)","code":"LF","address":"3601 Deer Hill Road, Lafayette CA 94549","entries":"3481","exits":"3616","coordinates":[-122.91,37.893394]},
{"name":"Lafayette (LAFY)","code":"LF","address":"3601 Deer Hill Road, Lafayette CA 94549","entries":"3481","exits":"3616","coordinates":[-122.92,37.893394]},
{"name":"Lafayette (LAFY)","code":"LF","address":"3601 Deer Hill Road, Lafayette CA 94549","entries":"3481","exits":"3616","coordinates":[-122.93,37.893394]},
{"name":"Lafayette (LAFY)","code":"LF","address":"3601 Deer Hill Road, Lafayette CA 94549","entries":"3481","exits":"3616","coordinates":[-122.94,37.893394]},
{"name":"Lafayette (LAFY)","code":"LF","address":"3601 Deer Hill Road, Lafayette CA 94549","entries":"3481","exits":"3616","coordinates":[-122.95,37.893394]},
{"name":"Lafayette (LAFY)","code":"LF","address":"3601 Deer Hill Road, Lafayette CA 94549","entries":"3481","exits":"3616","coordinates":[-122.96,37.893394]},
{"name":"Lafayette (LAFY)","code":"LF","address":"3601 Deer Hill Road, Lafayette CA 94549","entries":"3481","exits":"3616","coordinates":[-122.97,37.893394]},
{"name":"Lafayette (LAFY)","code":"LF","address":"3601 Deer Hill Road, Lafayette CA 94549","entries":"3481","exits":"3616","coordinates":[-122.98,37.893394]},
{"name":"Lafayette (LAFY)","code":"LF","address":"3601 Deer Hill Road, Lafayette CA 94549","entries":"3481","exits":"3616","coordinates":[-122.99,37.893394]},
{"name":"Lafayette (LAFY)","code":"LF","address":"3601 Deer Hill Road, Lafayette CA 94549","entries":"3481","exits":"3616","coordinates":[-122.100,37.893394]},
{"name":"Lafayette (LAFY)","code":"LF","address":"3601 Deer Hill Road, Lafayette CA 94549","entries":"3481","exits":"3616","coordinates":[-122.101,37.893394]},
{"name":"Lafayette (LAFY)","code":"LF","address":"3601 Deer Hill Road, Lafayette CA 94549","entries":"3481","exits":"3616","coordinates":[-122.102,37.893394]},
{"name":"Lafayette (LAFY)","code":"LF","address":"3601 Deer Hill Road, Lafayette CA 94549","entries":"3481","exits":"3616","coordinates":[-122.103,37.893394]},
{"name":"Lafayette (LAFY)","code":"LF","address":"3601 Deer Hill Road, Lafayette CA 94549","entries":"3481","exits":"3616","coordinates":[-122.104,37.893394]},
{"name":"Lafayette (LAFY)","code":"LF","address":"3601 Deer Hill Road, Lafayette CA 94549","entries":"3481","exits":"3616","coordinates":[-122.105,37.893394]},
{"name":"Lafayette (LAFY)","code":"LF","address":"3601 Deer Hill Road, Lafayette CA 94549","entries":"3481","exits":"3616","coordinates":[-122.106,37.893394]},
{"name":"Lafayette (LAFY)","code":"LF","address":"3601 Deer Hill Road, Lafayette CA 94549","entries":"3481","exits":"3616","coordinates":[-122.107,37.893394]},
{"name":"Lafayette (LAFY)","code":"LF","address":"3601 Deer Hill Road, Lafayette CA 94549","entries":"3481","exits":"3616","coordinates":[-122.108,37.893394]},
{"name":"Lafayette (LAFY)","code":"LF","address":"3601 Deer Hill Road, Lafayette CA 94549","entries":"3481","exits":"3616","coordinates":[-122.109,37.893394]},
{"name":"Lafayette (LAFY)","code":"LF","address":"3601 Deer Hill Road, Lafayette CA 94549","entries":"3481","exits":"3616","coordinates":[-122.110,37.893394]},
{"name":"Lafayette (LAFY)","code":"LF","address":"3601 Deer Hill Road, Lafayette CA 94549","entries":"3481","exits":"3616","coordinates":[-122.111,37.893394]},
{"name":"Lafayette (LAFY)","code":"LF","address":"3601 Deer Hill Road, Lafayette CA 94549","entries":"3481","exits":"3616","coordinates":[-122.112,37.893394]},
{"name":"Lafayette (LAFY)","code":"LF","address":"3601 Deer Hill Road, Lafayette CA 94549","entries":"3481","exits":"3616","coordinates":[-122.113,37.893394]},
{"name":"Lafayette (LAFY)","code":"LF","address":"3601 Deer Hill Road, Lafayette CA 94549","entries":"3481","exits":"3616","coordinates":[-122.114,37.893394]},
{"name":"Lafayette (LAFY)","code":"LF","address":"3601 Deer Hill Road, Lafayette CA 94549","entries":"3481","exits":"3616","coordinates":[-122.115,37.893394]},
{"name":"Lafayette (LAFY)","code":"LF","address":"3601 Deer Hill Road, Lafayette CA 94549","entries":"3481","exits":"3616","coordinates":[-122.116,37.893394]},
{"name":"Lafayette (LAFY)","code":"LF","address":"3601 Deer Hill Road, Lafayette CA 94549","entries":"3481","exits":"3616","coordinates":[-122.117,37.893394]},
{"name":"Lafayette (LAFY)","code":"LF","address":"3601 Deer Hill Road, Lafayette CA 94549","entries":"3481","exits":"3616","coordinates":[-122.118,37.893394]},
{"name":"Lafayette (LAFY)","code":"LF","address":"3601 Deer Hill Road, Lafayette CA 94549","entries":"3481","exits":"3616","coordinates":[-122.119,37.893394]},
{"name":"Lafayette (LAFY)","code":"LF","address":"3601 Deer Hill Road, Lafayette CA 94549","entries":"3481","exits":"3616","coordinates":[-122.120,37.893394]},
{"name":"Lafayette (LAFY)","code":"LF","address":"3601 Deer Hill Road, Lafayette CA 94549","entries":"3481","exits":"3616","coordinates":[-122.121,37.893394]},
{"name":"Lafayette (LAFY)","code":"LF","address":"3601 Deer Hill Road, Lafayette CA 94549","entries":"3481","exits":"3616","coordinates":[-122.122,37.893394]},
{"name":"Lafayette (LAFY)","code":"LF","address":"3601 Deer Hill Road, Lafayette CA 94549","entries":"3481","exits":"3616","coordinates":[-122.123,37.893394]},
{"name":"Lafayette (LAFY)","code":"LF","address":"3601 Deer Hill Road, Lafayette CA 94549","entries":"3481","exits":"3616","coordinates":[-122.124,37.893394]},
{"name":"Lafayette (LAFY)","code":"LF","address":"3601 Deer Hill Road, Lafayette CA 94549","entries":"3481","exits":"3616","coordinates":[-122.125,37.893394]},
{"name":"Lafayette (LAFY)","code":"LF","address":"3601 Deer Hill Road, Lafayette CA 94549","entries":"3481","exits":"3616","coordinates":[-122.126,37.893394]},
{"name":"Lafayette (LAFY)","code":"LF","address":"3601 Deer Hill Road, Lafayette CA 94549","entries":"3481","exits":"3616","coordinates":[-122.127,37.893394]},
{"name":"Lafayette (LAFY)","code":"LF","address":"3601 Deer Hill Road, Lafayette CA 94549","entries":"3481","exits":"3616","coordinates":[-122.128,37.893394]},
{"name":"Lafayette (LAFY)","code":"LF","address":"3601 Deer Hill Road, Lafayette CA 94549","entries":"3481","exits":"3616","coordinates":[-122.129,37.893394]},
{"name":"Lafayette (LAFY)","code":"LF","address":"3601 Deer Hill Road, Lafayette CA 94549","entries":"3481","exits":"3616","coordinates":[-122.130,37.893394]},
{"name":"Lafayette (LAFY)","code":"LF","address":"3601 Deer Hill Road, Lafayette CA 94549","entries":"3481","exits":"3616","coordinates":[-122.131,37.893394]},
{"name":"Lafayette (LAFY)","code":"LF","address":"3601 Deer Hill Road, Lafayette CA 94549","entries":"3481","exits":"3616","coordinates":[-122.132,37.893394]},
{"name":"Lafayette (LAFY)","code":"LF","address":"3601 Deer Hill Road, Lafayette CA 94549","entries":"3481","exits":"3616","coordinates":[-122.133,37.893394]},
{"name":"Lafayette (LAFY)","code":"LF","address":"3601 Deer Hill Road, Lafayette CA 94549","entries":"3481","exits":"3616","coordinates":[-122.134,37.893394]},
{"name":"Lafayette (LAFY)","code":"LF","address":"3601 Deer Hill Road, Lafayette CA 94549","entries":"3481","exits":"3616","coordinates":[-122.135,37.893394]},
{"name":"Lafayette (LAFY)","code":"LF","address":"3601 Deer Hill Road, Lafayette CA 94549","entries":"3481","exits":"3616","coordinates":[-122.136,37.893394]},
{"name":"Lafayette (LAFY)","code":"LF","address":"3601 Deer Hill Road, Lafayette CA 94549","entries":"3481","exits":"3616","coordinates":[-122.137,37.893394]},
{"name":"Lafayette (LAFY)","code":"LF","address":"3601 Deer Hill Road, Lafayette CA 94549","entries":"3481","exits":"3616","coordinates":[-122.138,37.893394]},
{"name":"Lafayette (LAFY)","code":"LF","address":"3601 Deer Hill Road, Lafayette CA 94549","entries":"3481","exits":"3616","coordinates":[-122.139,37.893394]},
{"name":"Lafayette (LAFY)","code":"LF","address":"3601 Deer Hill Road, Lafayette CA 94549","entries":"3481","exits":"3616","coordinates":[-122.140,37.893394]},
{"name":"Lafayette (LAFY)","code":"LF","address":"3601 Deer Hill Road, Lafayette CA 94549","entries":"3481","exits":"3616","coordinates":[-122.141,37.893394]},
{"name":"Lafayette (LAFY)","code":"LF","address":"3601 Deer Hill Road, Lafayette CA 94549","entries":"3481","exits":"3616","coordinates":[-122.142,37.893394]},
{"name":"Lafayette (LAFY)","code":"LF","address":"3601 Deer Hill Road, Lafayette CA 94549","entries":"3481","exits":"3616","coordinates":[-122.143,37.893394]},
{"name":"Lafayette (LAFY)","code":"LF","address":"3601 Deer Hill Road, Lafayette CA 94549","entries":"3481","exits":"3616","coordinates":[-122.144,37.893394]},
{"name":"Lafayette (LAFY)","code":"LF","address":"3601 Deer Hill Road, Lafayette CA 94549","entries":"3481","exits":"3616","coordinates":[-122.145,37.893394]},
{"name":"Lafayette (LAFY)","code":"LF","address":"3601 Deer Hill Road, Lafayette CA 94549","entries":"3481","exits":"3616","coordinates":[-122.146,37.893394]},
{"name":"Lafayette (LAFY)","code":"LF","address":"3601 Deer Hill Road, Lafayette CA 94549","entries":"3481","exits":"3616","coordinates":[-122.147,37.893394]},
{"name":"Lafayette (LAFY)","code":"LF","address":"3601 Deer Hill Road, Lafayette CA 94549","entries":"3481","exits":"3616","coordinates":[-122.148,37.893394]},
{"name":"Lafayette (LAFY)","code":"LF","address":"3601 Deer Hill Road, Lafayette CA 94549","entries":"3481","exits":"3616","coordinates":[-122.149,37.893394]},
{"name":"Lafayette (LAFY)","code":"LF","address":"3601 Deer Hill Road, Lafayette CA 94549","entries":"3481","exits":"3616","coordinates":[-122.150,37.893394]},
{"name":"Lafayette (LAFY)","code":"LF","address":"3601 Deer Hill Road, Lafayette CA 94549","entries":"3481","exits":"3616","coordinates":[-122.151,37.893394]},
{"name":"Lafayette (LAFY)","code":"LF","address":"3601 Deer Hill Road, Lafayette CA 94549","entries":"3481","exits":"3616","coordinates":[-122.152,37.893394]},
{"name":"Lafayette (LAFY)","code":"LF","address":"3601 Deer Hill Road, Lafayette CA 94549","entries":"3481","exits":"3616","coordinates":[-122.153,37.893394]},
{"name":"Lafayette (LAFY)","code":"LF","address":"3601 Deer Hill Road, Lafayette CA 94549","entries":"3481","exits":"3616","coordinates":[-122.154,37.893394]},
{"name":"Lafayette (LAFY)","code":"LF","address":"3601 Deer Hill Road, Lafayette CA 94549","entries":"3481","exits":"3616","coordinates":[-122.155,37.893394]},
{"name":"Lafayette (LAFY)","code":"LF","address":"3601 Deer Hill Road, Lafayette CA 94549","entries":"3481","exits":"3616","coordinates":[-122.156,37.893394]},
{"name":"Lafayette (LAFY)","code":"LF","address":"3601 Deer Hill Road, Lafayette CA 94549","entries":"3481","exits":"3616","coordinates":[-122.157,37.893394]},
{"name":"Lafayette (LAFY)","code":"LF","address":"3601 Deer Hill Road, Lafayette CA 94549","entries":"3481","exits":"3616","coordinates":[-122.158,37.893394]},
{"name":"Lafayette (LAFY)","code":"LF","address":"3601 Deer Hill Road, Lafayette CA 94549","entries":"3481","exits":"3616","coordinates":[-122.159,37.893394]},
{"name":"Lafayette (LAFY)","code":"LF","address":"3601 Deer Hill Road, Lafayette CA 94549","entries":"3481","exits":"3616","coordinates":[-122.160,37.893394]},
{"name":"Lafayette (LAFY)","code":"LF","address":"3601 Deer Hill Road, Lafayette CA 94549","entries":"3481","exits":"3616","coordinates":[-122.161,37.893394]},
{"name":"Lafayette (LAFY)","code":"LF","address":"3601 Deer Hill Road, Lafayette CA 94549","entries":"3481","exits":"3616","coordinates":[-122.162,37.893394]},
{"name":"Lafayette (LAFY)","code":"LF","address":"3601 Deer Hill Road, Lafayette CA 94549","entries":"3481","exits":"3616","coordinates":[-122.163,37.893394]},
{"name":"Lafayette (LAFY)","code":"LF","address":"3601 Deer Hill Road, Lafayette CA 94549","entries":"3481","exits":"3616","coordinates":[-122.164,37.893394]},
{"name":"Lafayette (LAFY)","code":"LF","address":"3601 Deer Hill Road, Lafayette CA 94549","entries":"3481","exits":"3616","coordinates":[-122.165,37.893394]},
{"name":"Lafayette (LAFY)","code":"LF","address":"3601 Deer Hill Road, Lafayette CA 94549","entries":"3481","exits":"3616","coordinates":[-122.166,37.893394]},
{"name":"Lafayette (LAFY)","code":"LF","address":"3601 Deer Hill Road, Lafayette CA 94549","entries":"3481","exits":"3616","coordinates":[-122.167,37.893394]},
{"name":"Lafayette (LAFY)","code":"LF","address":"3601 Deer Hill Road, Lafayette CA 94549","entries":"3481","exits":"3616","coordinates":[-122.168,37.893394]},
{"name":"Lafayette (LAFY)","code":"LF","address":"3601 Deer Hill Road, Lafayette CA 94549","entries":"3481","exits":"3616","coordinates":[-122.169,37.893394]},
{"name":"Lafayette (LAFY)","code":"LF","address":"3601 Deer Hill Road, Lafayette CA 94549","entries":"3481","exits":"3616","coordinates":[-122.170,37.893394]},
{"name":"Lafayette (LAFY)","code":"LF","address":"3601 Deer Hill Road, Lafayette CA 94549","entries":"3481","exits":"3616","coordinates":[-122.171,37.893394]},
{"name":"Lafayette (LAFY)","code":"LF","address":"3601 Deer Hill Road, Lafayette CA 94549","entries":"3481","exits":"3616","coordinates":[-122.172,37.893394]},
{"name":"Lafayette (LAFY)","code":"LF","address":"3601 Deer Hill Road, Lafayette CA 94549","entries":"3481","exits":"3616","coordinates":[-122.173,37.893394]},
{"name":"Lafayette (LAFY)","code":"LF","address":"3601 Deer Hill Road, Lafayette CA 94549","entries":"3481","exits":"3616","coordinates":[-122.174,37.893394]},
{"name":"Lafayette (LAFY)","code":"LF","address":"3601 Deer Hill Road, Lafayette CA 94549","entries":"3481","exits":"3616","coordinates":[-122.175,37.893394]},
{"name":"Lafayette (LAFY)","code":"LF","address":"3601 Deer Hill Road, Lafayette CA 94549","entries":"3481","exits":"3616","coordinates":[-122.176,37.893394]},
{"name":"Lafayette (LAFY)","code":"LF","address":"3601 Deer Hill Road, Lafayette CA 94549","entries":"3481","exits":"3616","coordinates":[-122.177,37.893394]},
{"name":"Lafayette (LAFY)","code":"LF","address":"3601 Deer Hill Road, Lafayette CA 94549","entries":"3481","exits":"3616","coordinates":[-122.178,37.893394]},
{"name":"Lafayette (LAFY)","code":"LF","address":"3601 Deer Hill Road, Lafayette CA 94549","entries":"3481","exits":"3616","coordinates":[-122.179,37.893394]},
{"name":"Lafayette (LAFY)","code":"LF","address":"3601 Deer Hill Road, Lafayette CA 94549","entries":"3481","exits":"3616","coordinates":[-122.180,37.893394]},
{"name":"Lafayette (LAFY)","code":"LF","address":"3601 Deer Hill Road, Lafayette CA 94549","entries":"3481","exits":"3616","coordinates":[-122.181,37.893394]},
{"name":"Lafayette (LAFY)","code":"LF","address":"3601 Deer Hill Road, Lafayette CA 94549","entries":"3481","exits":"3616","coordinates":[-122.182,37.893394]},
{"name":"Lafayette (LAFY)","code":"LF","address":"3601 Deer Hill Road, Lafayette CA 94549","entries":"3481","exits":"3616","coordinates":[-122.183,37.893394]},
{"name":"Lafayette (LAFY)","code":"LF","address":"3601 Deer Hill Road, Lafayette CA 94549","entries":"3481","exits":"3616","coordinates":[-122.184,37.893394]},
{"name":"Lafayette (LAFY)","code":"LF","address":"3601 Deer Hill Road, Lafayette CA 94549","entries":"3481","exits":"3616","coordinates":[-122.185,37.893394]},
{"name":"Lafayette (LAFY)","code":"LF","address":"3601 Deer Hill Road, Lafayette CA 94549","entries":"3481","exits":"3616","coordinates":[-122.186,37.893394]},
{"name":"Lafayette (LAFY)","code":"LF","address":"3601 Deer Hill Road, Lafayette CA 94549","entries":"3481","exits":"3616","coordinates":[-122.187,37.893394]},
{"name":"Lafayette (LAFY)","code":"LF","address":"3601 Deer Hill Road, Lafayette CA 94549","entries":"3481","exits":"3616","coordinates":[-122.188,37.893394]},
{"name":"Lafayette (LAFY)","code":"LF","address":"3601 Deer Hill Road, Lafayette CA 94549","entries":"3481","exits":"3616","coordinates":[-122.189,37.893394]},
{"name":"Lafayette (LAFY)","code":"LF","address":"3601 Deer Hill Road, Lafayette CA 94549","entries":"3481","exits":"3616","coordinates":[-122.190,37.893394]},
{"name":"Lafayette (LAFY)","code":"LF","address":"3601 Deer Hill Road, Lafayette CA 94549","entries":"3481","exits":"3616","coordinates":[-122.191,37.893394]},
{"name":"Lafayette (LAFY)","code":"LF","address":"3601 Deer Hill Road, Lafayette CA 94549","entries":"3481","exits":"3616","coordinates":[-122.192,37.893394]},
{"name":"Lafayette (LAFY)","code":"LF","address":"3601 Deer Hill Road, Lafayette CA 94549","entries":"3481","exits":"3616","coordinates":[-122.193,37.893394]},
{"name":"Lafayette (LAFY)","code":"LF","address":"3601 Deer Hill Road, Lafayette CA 94549","entries":"3481","exits":"3616","coordinates":[-122.194,37.893394]},
{"name":"Lafayette (LAFY)","code":"LF","address":"3601 Deer Hill Road, Lafayette CA 94549","entries":"3481","exits":"3616","coordinates":[-122.195,37.893394]},
{"name":"Lafayette (LAFY)","code":"LF","address":"3601 Deer Hill Road, Lafayette CA 94549","entries":"3481","exits":"3616","coordinates":[-122.196,37.893394]},
{"name":"Lafayette (LAFY)","code":"LF","address":"3601 Deer Hill Road, Lafayette CA 94549","entries":"3481","exits":"3616","coordinates":[-122.197,37.893394]},
{"name":"Lafayette (LAFY)","code":"LF","address":"3601 Deer Hill Road, Lafayette CA 94549","entries":"3481","exits":"3616","coordinates":[-122.198,37.893394]},
{"name":"Lafayette (LAFY)","code":"LF","address":"3601 Deer Hill Road, Lafayette CA 94549","entries":"3481","exits":"3616","coordinates":[-122.199,37.893394]},
{"name":"Lafayette (LAFY)","code":"LF","address":"3601 Deer Hill Road, Lafayette CA 94549","entries":"3481","exits":"3616","coordinates":[-122.200,37.893394]},
{"name":"Lafayette (LAFY)","code":"LF","address":"3601 Deer Hill Road, Lafayette CA 94549","entries":"3481","exits":"3616","coordinates":[-122.201,37.893394]},
{"name":"Lafayette (LAFY)","code":"LF","address":"3601 Deer Hill Road, Lafayette CA 94549","entries":"3481","exits":"3616","coordinates":[-122.202,37.893394]},
{"name":"Lafayette (LAFY)","code":"LF","address":"3601 Deer Hill Road, Lafayette CA 94549","entries":"3481","exits":"3616","coordinates":[-122.203,37.893394]},
{"name":"Lafayette (LAFY)","code":"LF","address":"3601 Deer Hill Road, Lafayette CA 94549","entries":"3481","exits":"3616","coordinates":[-122.204,37.893394]},
{"name":"Lafayette (LAFY)","code":"LF","address":"3601 Deer Hill Road, Lafayette CA 94549","entries":"3481","exits":"3616","coordinates":[-122.205,37.893394]},
{"name":"Lafayette (LAFY)","code":"LF","address":"3601 Deer Hill Road, Lafayette CA 94549","entries":"3481","exits":"3616","coordinates":[-122.206,37.893394]},
{"name":"Lafayette (LAFY)","code":"LF","address":"3601 Deer Hill Road, Lafayette CA 94549","entries":"3481","exits":"3616","coordinates":[-122.207,37.893394]},
{"name":"Lafayette (LAFY)","code":"LF","address":"3601 Deer Hill Road, Lafayette CA 94549","entries":"3481","exits":"3616","coordinates":[-122.208,37.893394]},
{"name":"Lafayette (LAFY)","code":"LF","address":"3601 Deer Hill Road, Lafayette CA 94549","entries":"3481","exits":"3616","coordinates":[-122.209,37.893394]},
{"name":"Lafayette (LAFY)","code":"LF","address":"3601 Deer Hill Road, Lafayette CA 94549","entries":"3481","exits":"3616","coordinates":[-122.210,37.893394]},
{"name":"Lafayette (LAFY)","code":"LF","address":"3601 Deer Hill Road, Lafayette CA 94549","entries":"3481","exits":"3616","coordinates":[-122.211,37.893394]},
{"name":"Lafayette (LAFY)","code":"LF","address":"3601 Deer Hill Road, Lafayette CA 94549","entries":"3481","exits":"3616","coordinates":[-122.212,37.893394]},
{"name":"Lafayette (LAFY)","code":"LF","address":"3601 Deer Hill Road, Lafayette CA 94549","entries":"3481","exits":"3616","coordinates":[-122.213,37.893394]},
{"name":"Lafayette (LAFY)","code":"LF","address":"3601 Deer Hill Road, Lafayette CA 94549","entries":"3481","exits":"3616","coordinates":[-122.214,37.893394]},
{"name":"Lafayette (LAFY)","code":"LF","address":"3601 Deer Hill Road, Lafayette CA 94549","entries":"3481","exits":"3616","coordinates":[-122.215,37.893394]},
{"name":"Lafayette (LAFY)","code":"LF","address":"3601 Deer Hill Road, Lafayette CA 94549","entries":"3481","exits":"3616","coordinates":[-122.216,37.893394]},
{"name":"Lafayette (LAFY)","code":"LF","address":"3601 Deer Hill Road, Lafayette CA 94549","entries":"3481","exits":"3616","coordinates":[-122.217,37.893394]},
{"name":"Lafayette (LAFY)","code":"LF","address":"3601 Deer Hill Road, Lafayette CA 94549","entries":"3481","exits":"3616","coordinates":[-122.218,37.893394]},
{"name":"Lafayette (LAFY)","code":"LF","address":"3601 Deer Hill Road, Lafayette CA 94549","entries":"3481","exits":"3616","coordinates":[-122.219,37.893394]},
{"name":"Lafayette (LAFY)","code":"LF","address":"3601 Deer Hill Road, Lafayette CA 94549","entries":"3481","exits":"3616","coordinates":[-122.220,37.893394]},
{"name":"Lafayette (LAFY)","code":"LF","address":"3601 Deer Hill Road, Lafayette CA 94549","entries":"3481","exits":"3616","coordinates":[-122.221,37.893394]},
{"name":"Lafayette (LAFY)","code":"LF","address":"3601 Deer Hill Road, Lafayette CA 94549","entries":"3481","exits":"3616","coordinates":[-122.222,37.893394]},
{"name":"Lafayette (LAFY)","code":"LF","address":"3601 Deer Hill Road, Lafayette CA 94549","entries":"3481","exits":"3616","coordinates":[-122.223,37.893394]},
{"name":"Lafayette (LAFY)","code":"LF","address":"3601 Deer Hill Road, Lafayette CA 94549","entries":"3481","exits":"3616","coordinates":[-122.224,37.893394]},
{"name":"Lafayette (LAFY)","code":"LF","address":"3601 Deer Hill Road, Lafayette CA 94549","entries":"3481","exits":"3616","coordinates":[-122.225,37.893394]},
{"name":"Lafayette (LAFY)","code":"LF","address":"3601 Deer Hill Road, Lafayette CA 94549","entries":"3481","exits":"3616","coordinates":[-122.226,37.893394]},
{"name":"Lafayette (LAFY)","code":"LF","address":"3601 Deer Hill Road, Lafayette CA 94549","entries":"3481","exits":"3616","coordinates":[-122.227,37.893394]},
{"name":"Lafayette (LAFY)","code":"LF","address":"3601 Deer Hill Road, Lafayette CA 94549","entries":"3481","exits":"3616","coordinates":[-122.228,37.893394]},
{"name":"Lafayette (LAFY)","code":"LF","address":"3601 Deer Hill Road, Lafayette CA 94549","entries":"3481","exits":"3616","coordinates":[-122.229,37.893394]},
{"name":"Lafayette (LAFY)","code":"LF","address":"3601 Deer Hill Road, Lafayette CA 94549","entries":"3481","exits":"3616","coordinates":[-122.230,37.893394]},
{"name":"Lafayette (LAFY)","code":"LF","address":"3601 Deer Hill Road, Lafayette CA 94549","entries":"3481","exits":"3616","coordinates":[-122.231,37.893394]},
{"name":"Lafayette (LAFY)","code":"LF","address":"3601 Deer Hill Road, Lafayette CA 94549","entries":"3481","exits":"3616","coordinates":[-122.232,37.893394]},
{"name":"Lafayette (LAFY)","code":"LF","address":"3601 Deer Hill Road, Lafayette CA 94549","entries":"3481","exits":"3616","coordinates":[-122.233,37.893394]},
{"name":"Lafayette (LAFY)","code":"LF","address":"3601 Deer Hill Road, Lafayette CA 94549","entries":"3481","exits":"3616","coordinates":[-122.234,37.893394]},
{"name":"Lafayette (LAFY)","code":"LF","address":"3601 Deer Hill Road, Lafayette CA 94549","entries":"3481","exits":"3616","coordinates":[-122.235,37.893394]},
{"name":"Lafayette (LAFY)","code":"LF","address":"3601 Deer Hill Road, Lafayette CA 94549","entries":"3481","exits":"3616","coordinates":[-122.236,37.893394]},
{"name":"Lafayette (LAFY)","code":"LF","address":"3601 Deer Hill Road, Lafayette CA 94549","entries":"3481","exits":"3616","coordinates":[-122.237,37.893394]},
{"name":"Lafayette (LAFY)","code":"LF","address":"3601 Deer Hill Road, Lafayette CA 94549","entries":"3481","exits":"3616","coordinates":[-122.238,37.893394]},
{"name":"Lafayette (LAFY)","code":"LF","address":"3601 Deer Hill Road, Lafayette CA 94549","entries":"3481","exits":"3616","coordinates":[-122.239,37.893394]},
{"name":"Lafayette (LAFY)","code":"LF","address":"3601 Deer Hill Road, Lafayette CA 94549","entries":"3481","exits":"3616","coordinates":[-122.240,37.893394]},
{"name":"Lafayette (LAFY)","code":"LF","address":"3601 Deer Hill Road, Lafayette CA 94549","entries":"3481","exits":"3616","coordinates":[-122.241,37.893394]},
{"name":"Lafayette (LAFY)","code":"LF","address":"3601 Deer Hill Road, Lafayette CA 94549","entries":"3481","exits":"3616","coordinates":[-122.242,37.893394]},
{"name":"Lafayette (LAFY)","code":"LF","address":"3601 Deer Hill Road, Lafayette CA 94549","entries":"3481","exits":"3616","coordinates":[-122.243,37.893394]},
{"name":"Lafayette (LAFY)","code":"LF","address":"3601 Deer Hill Road, Lafayette CA 94549","entries":"3481","exits":"3616","coordinates":[-122.244,37.893394]},
{"name":"Lafayette (LAFY)","code":"LF","address":"3601 Deer Hill Road, Lafayette CA 94549","entries":"3481","exits":"3616","coordinates":[-122.245,37.893394]},
{"name":"Lafayette (LAFY)","code":"LF","address":"3601 Deer Hill Road, Lafayette CA 94549","entries":"3481","exits":"3616","coordinates":[-122.246,37.893394]},
{"name":"Lafayette (LAFY)","code":"LF","address":"3601 Deer Hill Road, Lafayette CA 94549","entries":"3481","exits":"3616","coordinates":[-122.247,37.893394]},
{"name":"Lafayette (LAFY)","code":"LF","address":"3601 Deer Hill Road, Lafayette CA 94549","entries":"3481","exits":"3616","coordinates":[-122.248,37.893394]},
{"name":"Lafayette (LAFY)","code":"LF","address":"3601 Deer Hill Road, Lafayette CA 94549","entries":"3481","exits":"3616","coordinates":[-122.249,37.893394]},
{"name":"Lafayette (LAFY)","code":"LF","address":"3601 Deer Hill Road, Lafayette CA 94549","entries":"3481","exits":"3616","coordinates":[-122.250,37.893394]},
{"name":"Lafayette (LAFY)","code":"LF","address":"3601 Deer Hill Road, Lafayette CA 94549","entries":"3481","exits":"3616","coordinates":[-122.251,37.893394]},
{"name":"Lafayette (LAFY)","code":"LF","address":"3601 Deer Hill Road, Lafayette CA 94549","entries":"3481","exits":"3616","coordinates":[-122.252,37.893394]},
{"name":"Lafayette (LAFY)","code":"LF","address":"3601 Deer Hill Road, Lafayette CA 94549","entries":"3481","exits":"3616","coordinates":[-122.253,37.893394]},
{"name":"Lafayette (LAFY)","code":"LF","address":"3601 Deer Hill Road, Lafayette CA 94549","entries":"3481","exits":"3616","coordinates":[-122.254,37.893394]},
{"name":"Lafayette (LAFY)","code":"LF","address":"3601 Deer Hill Road, Lafayette CA 94549","entries":"3481","exits":"3616","coordinates":[-122.255,37.893394]},
{"name":"Lafayette (LAFY)","code":"LF","address":"3601 Deer Hill Road, Lafayette CA 94549","entries":"3481","exits":"3616","coordinates":[-122.256,37.893394]},
{"name":"Lafayette (LAFY)","code":"LF","address":"3601 Deer Hill Road, Lafayette CA 94549","entries":"3481","exits":"3616","coordinates":[-122.257,37.893394]},
{"name":"Lafayette (LAFY)","code":"LF","address":"3601 Deer Hill Road, Lafayette CA 94549","entries":"3481","exits":"3616","coordinates":[-122.258,37.893394]},
{"name":"Lafayette (LAFY)","code":"LF","address":"3601 Deer Hill Road, Lafayette CA 94549","entries":"3481","exits":"3616","coordinates":[-122.259,37.893394]},
{"name":"Lafayette (LAFY)","code":"LF","address":"3601 Deer Hill Road, Lafayette CA 94549","entries":"3481","exits":"3616","coordinates":[-122.260,37.893394]},
{"name":"Lafayette (LAFY)","code":"LF","address":"3601 Deer Hill Road, Lafayette CA 94549","entries":"3481","exits":"3616","coordinates":[-122.261,37.893394]},
{"name":"Lafayette (LAFY)","code":"LF","address":"3601 Deer Hill Road, Lafayette CA 94549","entries":"3481","exits":"3616","coordinates":[-122.262,37.893394]},
{"name":"Lafayette (LAFY)","code":"LF","address":"3601 Deer Hill Road, Lafayette CA 94549","entries":"3481","exits":"3616","coordinates":[-122.263,37.893394]},
{"name":"Lafayette (LAFY)","code":"LF","address":"3601 Deer Hill Road, Lafayette CA 94549","entries":"3481","exits":"3616","coordinates":[-122.264,37.893394]},
{"name":"Lafayette (LAFY)","code":"LF","address":"3601 Deer Hill Road, Lafayette CA 94549","entries":"3481","exits":"3616","coordinates":[-122.265,37.893394]},
{"name":"Lafayette (LAFY)","code":"LF","address":"3601 Deer Hill Road, Lafayette CA 94549","entries":"3481","exits":"3616","coordinates":[-122.266,37.893394]},
{"name":"Lafayette (LAFY)","code":"LF","address":"3601 Deer Hill Road, Lafayette CA 94549","entries":"3481","exits":"3616","coordinates":[-122.267,37.893394]},
{"name":"Lafayette (LAFY)","code":"LF","address":"3601 Deer Hill Road, Lafayette CA 94549","entries":"3481","exits":"3616","coordinates":[-122.268,37.893394]},
{"name":"Lafayette (LAFY)","code":"LF","address":"3601 Deer Hill Road, Lafayette CA 94549","entries":"3481","exits":"3616","coordinates":[-122.269,37.893394]},
{"name":"Lafayette (LAFY)","code":"LF","address":"3601 Deer Hill Road, Lafayette CA 94549","entries":"3481","exits":"3616","coordinates":[-122.270,37.893394]},
{"name":"Lafayette (LAFY)","code":"LF","address":"3601 Deer Hill Road, Lafayette CA 94549","entries":"3481","exits":"3616","coordinates":[-122.271,37.893394]},
{"name":"Lafayette (LAFY)","code":"LF","address":"3601 Deer Hill Road, Lafayette CA 94549","entries":"3481","exits":"3616","coordinates":[-122.272,37.893394]},
{"name":"Lafayette (LAFY)","code":"LF","address":"3601 Deer Hill Road, Lafayette CA 94549","entries":"3481","exits":"3616","coordinates":[-122.273,37.893394]},
{"name":"Lafayette (LAFY)","code":"LF","address":"3601 Deer Hill Road, Lafayette CA 94549","entries":"3481","exits":"3616","coordinates":[-122.274,37.893394]},
{"name":"Lafayette (LAFY)","code":"LF","address":"3601 Deer Hill Road, Lafayette CA 94549","entries":"3481","exits":"3616","coordinates":[-122.275,37.893394]},
{"name":"Lafayette (LAFY)","code":"LF","address":"3601 Deer Hill Road, Lafayette CA 94549","entries":"3481","exits":"3616","coordinates":[-122.276,37.893394]},
{"name":"Lafayette (LAFY)","code":"LF","address":"3601 Deer Hill Road, Lafayette CA 94549","entries":"3481","exits":"3616","coordinates":[-122.277,37.893394]},
{"name":"Lafayette (LAFY)","code":"LF","address":"3601 Deer Hill Road, Lafayette CA 94549","entries":"3481","exits":"3616","coordinates":[-122.278,37.893394]},
{"name":"Lafayette (LAFY)","code":"LF","address":"3601 Deer Hill Road, Lafayette CA 94549","entries":"3481","exits":"3616","coordinates":[-122.279,37.893394]},
{"name":"Lafayette (LAFY)","code":"LF","address":"3601 Deer Hill Road, Lafayette CA 94549","entries":"3481","exits":"3616","coordinates":[-122.280,37.893394]},
{"name":"Lafayette (LAFY)","code":"LF","address":"3601 Deer Hill Road, Lafayette CA 94549","entries":"3481","exits":"3616","coordinates":[-122.281,37.893394]},
{"name":"Lafayette (LAFY)","code":"LF","address":"3601 Deer Hill Road, Lafayette CA 94549","entries":"3481","exits":"3616","coordinates":[-122.282,37.893394]},
{"name":"Lafayette (LAFY)","code":"LF","address":"3601 Deer Hill Road, Lafayette CA 94549","entries":"3481","exits":"3616","coordinates":[-122.283,37.893394]},
{"name":"Lafayette (LAFY)","code":"LF","address":"3601 Deer Hill Road, Lafayette CA 94549","entries":"3481","exits":"3616","coordinates":[-122.284,37.893394]},
{"name":"Lafayette (LAFY)","code":"LF","address":"3601 Deer Hill Road, Lafayette CA 94549","entries":"3481","exits":"3616","coordinates":[-122.285,37.893394]},
{"name":"Lafayette (LAFY)","code":"LF","address":"3601 Deer Hill Road, Lafayette CA 94549","entries":"3481","exits":"3616","coordinates":[-122.286,37.893394]},
{"name":"Lafayette (LAFY)","code":"LF","address":"3601 Deer Hill Road, Lafayette CA 94549","entries":"3481","exits":"3616","coordinates":[-122.287,37.893394]},
{"name":"Lafayette (LAFY)","code":"LF","address":"3601 Deer Hill Road, Lafayette CA 94549","entries":"3481","exits":"3616","coordinates":[-122.288,37.893394]},
{"name":"Lafayette (LAFY)","code":"LF","address":"3601 Deer Hill Road, Lafayette CA 94549","entries":"3481","exits":"3616","coordinates":[-122.289,37.893394]},
{"name":"Lafayette (LAFY)","code":"LF","address":"3601 Deer Hill Road, Lafayette CA 94549","entries":"3481","exits":"3616","coordinates":[-122.290,37.893394]},
{"name":"Lafayette (LAFY)","code":"LF","address":"3601 Deer Hill Road, Lafayette CA 94549","entries":"3481","exits":"3616","coordinates":[-122.291,37.893394]},
{"name":"Lafayette (LAFY)","code":"LF","address":"3601 Deer Hill Road, Lafayette CA 94549","entries":"3481","exits":"3616","coordinates":[-122.292,37.893394]},
{"name":"Lafayette (LAFY)","code":"LF","address":"3601 Deer Hill Road, Lafayette CA 94549","entries":"3481","exits":"3616","coordinates":[-122.293,37.893394]},
{"name":"Lafayette (LAFY)","code":"LF","address":"3601 Deer Hill Road, Lafayette CA 94549","entries":"3481","exits":"3616","coordinates":[-122.294,37.893394]},
{"name":"Lafayette (LAFY)","code":"LF","address":"3601 Deer Hill Road, Lafayette CA 94549","entries":"3481","exits":"3616","coordinates":[-122.295,37.893394]},
{"name":"Lafayette (LAFY)","code":"LF","address":"3601 Deer Hill Road, Lafayette CA 94549","entries":"3481","exits":"3616","coordinates":[-122.296,37.893394]},
{"name":"Lafayette (LAFY)","code":"LF","address":"3601 Deer Hill Road, Lafayette CA 94549","entries":"3481","exits":"3616","coordinates":[-122.297,37.893394]},
{"name":"Lafayette (LAFY)","code":"LF","address":"3601 Deer Hill Road, Lafayette CA 94549","entries":"3481","exits":"3616","coordinates":[-122.298,37.893394]},
{"name":"Lafayette (LAFY)","code":"LF","address":"3601 Deer Hill Road, Lafayette CA 94549","entries":"3481","exits":"3616","coordinates":[-122.299,37.893394]},
{"name":"Lafayette (LAFY)","code":"LF","address":"3601 Deer Hill Road, Lafayette CA 94549","entries":"3481","exits":"3616","coordinates":[-122.300,37.893394]},
{"name":"Lafayette (LAFY)","code":"LF","address":"3601 Deer Hill Road, Lafayette CA 94549","entries":"3481","exits":"3616","coordinates":[-122.301,37.893394]},
{"name":"Lafayette (LAFY)","code":"LF","address":"3601 Deer Hill Road, Lafayette CA 94549","entries":"3481","exits":"3616","coordinates":[-122.302,37.893394]},
{"name":"Lafayette (LAFY)","code":"LF","address":"3601 Deer Hill Road, Lafayette CA 94549","entries":"3481","exits":"3616","coordinates":[-122.303,37.893394]},
{"name":"Lafayette (LAFY)","code":"LF","address":"3601 Deer Hill Road, Lafayette CA 94549","entries":"3481","exits":"3616","coordinates":[-122.304,37.893394]},
{"name":"Lafayette (LAFY)","code":"LF","address":"3601 Deer Hill Road, Lafayette CA 94549","entries":"3481","exits":"3616","coordinates":[-122.305,37.893394]},
{"name":"Lafayette (LAFY)","code":"LF","address":"3601 Deer Hill Road, Lafayette CA 94549","entries":"3481","exits":"3616","coordinates":[-122.306,37.893394]},
{"name":"Lafayette (LAFY)","code":"LF","address":"3601 Deer Hill Road, Lafayette CA 94549","entries":"3481","exits":"3616","coordinates":[-122.307,37.893394]},
{"name":"Lafayette (LAFY)","code":"LF","address":"3601 Deer Hill Road, Lafayette CA 94549","entries":"3481","exits":"3616","coordinates":[-122.308,37.893394]},
{"name":"Lafayette (LAFY)","code":"LF","address":"3601 Deer Hill Road, Lafayette CA 94549","entries":"3481","exits":"3616","coordinates":[-122.309,37.893394]},
{"name":"Lafayette (LAFY)","code":"LF","address":"3601 Deer Hill Road, Lafayette CA 94549","entries":"3481","exits":"3616","coordinates":[-122.310,37.893394]},
{"name":"Lafayette (LAFY)","code":"LF","address":"3601 Deer Hill Road, Lafayette CA 94549","entries":"3481","exits":"3616","coordinates":[-122.311,37.893394]},
{"name":"Lafayette (LAFY)","code":"LF","address":"3601 Deer Hill Road, Lafayette CA 94549","entries":"3481","exits":"3616","coordinates":[-122.312,37.893394]},
{"name":"Lafayette (LAFY)","code":"LF","address":"3601 Deer Hill Road, Lafayette CA 94549","entries":"3481","exits":"3616","coordinates":[-122.313,37.893394]},
{"name":"Lafayette (LAFY)","code":"LF","address":"3601 Deer Hill Road, Lafayette CA 94549","entries":"3481","exits":"3616","coordinates":[-122.314,37.893394]},
{"name":"Lafayette (LAFY)","code":"LF","address":"3601 Deer Hill Road, Lafayette CA 94549","entries":"3481","exits":"3616","coordinates":[-122.315,37.893394]},
{"name":"Lafayette (LAFY)","code":"LF","address":"3601 Deer Hill Road, Lafayette CA 94549","entries":"3481","exits":"3616","coordinates":[-122.316,37.893394]},
{"name":"Lafayette (LAFY)","code":"LF","address":"3601 Deer Hill Road, Lafayette CA 94549","entries":"3481","exits":"3616","coordinates":[-122.317,37.893394]},
{"name":"Lafayette (LAFY)","code":"LF","address":"3601 Deer Hill Road, Lafayette CA 94549","entries":"3481","exits":"3616","coordinates":[-122.318,37.893394]},
{"name":"Lafayette (LAFY)","code":"LF","address":"3601 Deer Hill Road, Lafayette CA 94549","entries":"3481","exits":"3616","coordinates":[-122.319,37.893394]},
{"name":"Lafayette (LAFY)","code":"LF","address":"3601 Deer Hill Road, Lafayette CA 94549","entries":"3481","exits":"3616","coordinates":[-122.320,37.893394]},
{"name":"Lafayette (LAFY)","code":"LF","address":"3601 Deer Hill Road, Lafayette CA 94549","entries":"3481","exits":"3616","coordinates":[-122.321,37.893394]},
{"name":"Lafayette (LAFY)","code":"LF","address":"3601 Deer Hill Road, Lafayette CA 94549","entries":"3481","exits":"3616","coordinates":[-122.322,37.893394]},
{"name":"Lafayette (LAFY)","code":"LF","address":"3601 Deer Hill Road, Lafayette CA 94549","entries":"3481","exits":"3616","coordinates":[-122.323,37.893394]},
{"name":"Lafayette (LAFY)","code":"LF","address":"3601 Deer Hill Road, Lafayette CA 94549","entries":"3481","exits":"3616","coordinates":[-122.324,37.893394]},
{"name":"Lafayette (LAFY)","code":"LF","address":"3601 Deer Hill Road, Lafayette CA 94549","entries":"3481","exits":"3616","coordinates":[-122.325,37.893394]},
{"name":"Lafayette (LAFY)","code":"LF","address":"3601 Deer Hill Road, Lafayette CA 94549","entries":"3481","exits":"3616","coordinates":[-122.326,37.893394]},
{"name":"Lafayette (LAFY)","code":"LF","address":"3601 Deer Hill Road, Lafayette CA 94549","entries":"3481","exits":"3616","coordinates":[-122.327,37.893394]},
{"name":"Lafayette (LAFY)","code":"LF","address":"3601 Deer Hill Road, Lafayette CA 94549","entries":"3481","exits":"3616","coordinates":[-122.328,37.893394]},
{"name":"Lafayette (LAFY)","code":"LF","address":"3601 Deer Hill Road, Lafayette CA 94549","entries":"3481","exits":"3616","coordinates":[-122.329,37.893394]},
{"name":"Lafayette (LAFY)","code":"LF","address":"3601 Deer Hill Road, Lafayette CA 94549","entries":"3481","exits":"3616","coordinates":[-122.330,37.893394]},
{"name":"Lafayette (LAFY)","code":"LF","address":"3601 Deer Hill Road, Lafayette CA 94549","entries":"3481","exits":"3616","coordinates":[-122.331,37.893394]},
{"name":"Lafayette (LAFY)","code":"LF","address":"3601 Deer Hill Road, Lafayette CA 94549","entries":"3481","exits":"3616","coordinates":[-122.332,37.893394]},
{"name":"Lafayette (LAFY)","code":"LF","address":"3601 Deer Hill Road, Lafayette CA 94549","entries":"3481","exits":"3616","coordinates":[-122.333,37.893394]},
{"name":"Lafayette (LAFY)","code":"LF","address":"3601 Deer Hill Road, Lafayette CA 94549","entries":"3481","exits":"3616","coordinates":[-122.334,37.893394]},
{"name":"Lafayette (LAFY)","code":"LF","address":"3601 Deer Hill Road, Lafayette CA 94549","entries":"3481","exits":"3616","coordinates":[-122.335,37.893394]},
{"name":"Lafayette (LAFY)","code":"LF","address":"3601 Deer Hill Road, Lafayette CA 94549","entries":"3481","exits":"3616","coordinates":[-122.336,37.893394]},
{"name":"Lafayette (LAFY)","code":"LF","address":"3601 Deer Hill Road, Lafayette CA 94549","entries":"3481","exits":"3616","coordinates":[-122.337,37.893394]},
{"name":"Lafayette (LAFY)","code":"LF","address":"3601 Deer Hill Road, Lafayette CA 94549","entries":"3481","exits":"3616","coordinates":[-122.338,37.893394]},
{"name":"Lafayette (LAFY)","code":"LF","address":"3601 Deer Hill Road, Lafayette CA 94549","entries":"3481","exits":"3616","coordinates":[-122.339,37.893394]},
{"name":"Lafayette (LAFY)","code":"LF","address":"3601 Deer Hill Road, Lafayette CA 94549","entries":"3481","exits":"3616","coordinates":[-122.340,37.893394]},
{"name":"Lafayette (LAFY)","code":"LF","address":"3601 Deer Hill Road, Lafayette CA 94549","entries":"3481","exits":"3616","coordinates":[-122.341,37.893394]},
{"name":"Lafayette (LAFY)","code":"LF","address":"3601 Deer Hill Road, Lafayette CA 94549","entries":"3481","exits":"3616","coordinates":[-122.342,37.893394]},
{"name":"Lafayette (LAFY)","code":"LF","address":"3601 Deer Hill Road, Lafayette CA 94549","entries":"3481","exits":"3616","coordinates":[-122.343,37.893394]},
{"name":"Lafayette (LAFY)","code":"LF","address":"3601 Deer Hill Road, Lafayette CA 94549","entries":"3481","exits":"3616","coordinates":[-122.344,37.893394]},
{"name":"Lafayette (LAFY)","code":"LF","address":"3601 Deer Hill Road, Lafayette CA 94549","entries":"3481","exits":"3616","coordinates":[-122.345,37.893394]},
{"name":"Lafayette (LAFY)","code":"LF","address":"3601 Deer Hill Road, Lafayette CA 94549","entries":"3481","exits":"3616","coordinates":[-122.346,37.893394]},
{"name":"Lafayette (LAFY)","code":"LF","address":"3601 Deer Hill Road, Lafayette CA 94549","entries":"3481","exits":"3616","coordinates":[-122.347,37.893394]},
{"name":"Lafayette (LAFY)","code":"LF","address":"3601 Deer Hill Road, Lafayette CA 94549","entries":"3481","exits":"3616","coordinates":[-122.348,37.893394]},
{"name":"Lafayette (LAFY)","code":"LF","address":"3601 Deer Hill Road, Lafayette CA 94549","entries":"3481","exits":"3616","coordinates":[-122.349,37.893394]},
{"name":"Lafayette (LAFY)","code":"LF","address":"3601 Deer Hill Road, Lafayette CA 94549","entries":"3481","exits":"3616","coordinates":[-122.350,37.893394]},
{"name":"Lafayette (LAFY)","code":"LF","address":"3601 Deer Hill Road, Lafayette CA 94549","entries":"3481","exits":"3616","coordinates":[-122.351,37.893394]},
{"name":"Lafayette (LAFY)","code":"LF","address":"3601 Deer Hill Road, Lafayette CA 94549","entries":"3481","exits":"3616","coordinates":[-122.352,37.893394]},
{"name":"Lafayette (LAFY)","code":"LF","address":"3601 Deer Hill Road, Lafayette CA 94549","entries":"3481","exits":"3616","coordinates":[-122.353,37.893394]},
{"name":"Lafayette (LAFY)","code":"LF","address":"3601 Deer Hill Road, Lafayette CA 94549","entries":"3481","exits":"3616","coordinates":[-122.354,37.893394]},
{"name":"Lafayette (LAFY)","code":"LF","address":"3601 Deer Hill Road, Lafayette CA 94549","entries":"3481","exits":"3616","coordinates":[-122.355,37.893394]},
{"name":"Lafayette (LAFY)","code":"LF","address":"3601 Deer Hill Road, Lafayette CA 94549","entries":"3481","exits":"3616","coordinates":[-122.356,37.893394]},
{"name":"Lafayette (LAFY)","code":"LF","address":"3601 Deer Hill Road, Lafayette CA 94549","entries":"3481","exits":"3616","coordinates":[-122.357,37.893394]},
{"name":"Lafayette (LAFY)","code":"LF","address":"3601 Deer Hill Road, Lafayette CA 94549","entries":"3481","exits":"3616","coordinates":[-122.358,37.893394]},
{"name":"Lafayette (LAFY)","code":"LF","address":"3601 Deer Hill Road, Lafayette CA 94549","entries":"3481","exits":"3616","coordinates":[-122.359,37.893394]},
{"name":"Lafayette (LAFY)","code":"LF","address":"3601 Deer Hill Road, Lafayette CA 94549","entries":"3481","exits":"3616","coordinates":[-122.360,37.893394]},
{"name":"Lafayette (LAFY)","code":"LF","address":"3601 Deer Hill Road, Lafayette CA 94549","entries":"3481","exits":"3616","coordinates":[-122.361,37.893394]},
{"name":"Lafayette (LAFY)","code":"LF","address":"3601 Deer Hill Road, Lafayette CA 94549","entries":"3481","exits":"3616","coordinates":[-122.362,37.893394]},
{"name":"Lafayette (LAFY)","code":"LF","address":"3601 Deer Hill Road, Lafayette CA 94549","entries":"3481","exits":"3616","coordinates":[-122.363,37.893394]},
{"name":"Lafayette (LAFY)","code":"LF","address":"3601 Deer Hill Road, Lafayette CA 94549","entries":"3481","exits":"3616","coordinates":[-122.364,37.893394]},
{"name":"Lafayette (LAFY)","code":"LF","address":"3601 Deer Hill Road, Lafayette CA 94549","entries":"3481","exits":"3616","coordinates":[-122.365,37.893394]},
{"name":"Lafayette (LAFY)","code":"LF","address":"3601 Deer Hill Road, Lafayette CA 94549","entries":"3481","exits":"3616","coordinates":[-122.366,37.893394]},
{"name":"Lafayette (LAFY)","code":"LF","address":"3601 Deer Hill Road, Lafayette CA 94549","entries":"3481","exits":"3616","coordinates":[-122.367,37.893394]},
{"name":"Lafayette (LAFY)","code":"LF","address":"3601 Deer Hill Road, Lafayette CA 94549","entries":"3481","exits":"3616","coordinates":[-122.368,37.893394]},
{"name":"Lafayette (LAFY)","code":"LF","address":"3601 Deer Hill Road, Lafayette CA 94549","entries":"3481","exits":"3616","coordinates":[-122.369,37.893394]},
{"name":"Lafayette (LAFY)","code":"LF","address":"3601 Deer Hill Road, Lafayette CA 94549","entries":"3481","exits":"3616","coordinates":[-122.370,37.893394]},
{"name":"Lafayette (LAFY)","code":"LF","address":"3601 Deer Hill Road, Lafayette CA 94549","entries":"3481","exits":"3616","coordinates":[-122.371,37.893394]},
{"name":"Lafayette (LAFY)","code":"LF","address":"3601 Deer Hill Road, Lafayette CA 94549","entries":"3481","exits":"3616","coordinates":[-122.372,37.893394]},
{"name":"Lafayette (LAFY)","code":"LF","address":"3601 Deer Hill Road, Lafayette CA 94549","entries":"3481","exits":"3616","coordinates":[-122.373,37.893394]},
{"name":"Lafayette (LAFY)","code":"LF","address":"3601 Deer Hill Road, Lafayette CA 94549","entries":"3481","exits":"3616","coordinates":[-122.374,37.893394]},
{"name":"Lafayette (LAFY)","code":"LF","address":"3601 Deer Hill Road, Lafayette CA 94549","entries":"3481","exits":"3616","coordinates":[-122.375,37.893394]},
{"name":"Lafayette (LAFY)","code":"LF","address":"3601 Deer Hill Road, Lafayette CA 94549","entries":"3481","exits":"3616","coordinates":[-122.376,37.893394]},
{"name":"Lafayette (LAFY)","code":"LF","address":"3601 Deer Hill Road, Lafayette CA 94549","entries":"3481","exits":"3616","coordinates":[-122.377,37.893394]},
{"name":"Lafayette (LAFY)","code":"LF","address":"3601 Deer Hill Road, Lafayette CA 94549","entries":"3481","exits":"3616","coordinates":[-122.378,37.893394]},
{"name":"Lafayette (LAFY)","code":"LF","address":"3601 Deer Hill Road, Lafayette CA 94549","entries":"3481","exits":"3616","coordinates":[-122.379,37.893394]},
{"name":"Lafayette (LAFY)","code":"LF","address":"3601 Deer Hill Road, Lafayette CA 94549","entries":"3481","exits":"3616","coordinates":[-122.380,37.893394]},
{"name":"Lafayette (LAFY)","code":"LF","address":"3601 Deer Hill Road, Lafayette CA 94549","entries":"3481","exits":"3616","coordinates":[-122.381,37.893394]},
{"name":"Lafayette (LAFY)","code":"LF","address":"3601 Deer Hill Road, Lafayette CA 94549","entries":"3481","exits":"3616","coordinates":[-122.382,37.893394]},
{"name":"Lafayette (LAFY)","code":"LF","address":"3601 Deer Hill Road, Lafayette CA 94549","entries":"3481","exits":"3616","coordinates":[-122.383,37.893394]},
{"name":"Lafayette (LAFY)","code":"LF","address":"3601 Deer Hill Road, Lafayette CA 94549","entries":"3481","exits":"3616","coordinates":[-122.384,37.893394]},
{"name":"Lafayette (LAFY)","code":"LF","address":"3601 Deer Hill Road, Lafayette CA 94549","entries":"3481","exits":"3616","coordinates":[-122.385,37.893394]},
{"name":"Lafayette (LAFY)","code":"LF","address":"3601 Deer Hill Road, Lafayette CA 94549","entries":"3481","exits":"3616","coordinates":[-122.386,37.893394]},
{"name":"Lafayette (LAFY)","code":"LF","address":"3601 Deer Hill Road, Lafayette CA 94549","entries":"3481","exits":"3616","coordinates":[-122.387,37.893394]},
{"name":"Lafayette (LAFY)","code":"LF","address":"3601 Deer Hill Road, Lafayette CA 94549","entries":"3481","exits":"3616","coordinates":[-122.388,37.893394]},
{"name":"Lafayette (LAFY)","code":"LF","address":"3601 Deer Hill Road, Lafayette CA 94549","entries":"3481","exits":"3616","coordinates":[-122.389,37.893394]},
{"name":"Lafayette (LAFY)","code":"LF","address":"3601 Deer Hill Road, Lafayette CA 94549","entries":"3481","exits":"3616","coordinates":[-122.390,37.893394]},
{"name":"Lafayette (LAFY)","code":"LF","address":"3601 Deer Hill Road, Lafayette CA 94549","entries":"3481","exits":"3616","coordinates":[-122.391,37.893394]},
{"name":"Lafayette (LAFY)","code":"LF","address":"3601 Deer Hill Road, Lafayette CA 94549","entries":"3481","exits":"3616","coordinates":[-122.392,37.893394]},
{"name":"Lafayette (LAFY)","code":"LF","address":"3601 Deer Hill Road, Lafayette CA 94549","entries":"3481","exits":"3616","coordinates":[-122.393,37.893394]},
{"name":"Lafayette (LAFY)","code":"LF","address":"3601 Deer Hill Road, Lafayette CA 94549","entries":"3481","exits":"3616","coordinates":[-122.394,37.893394]},
{"name":"Lafayette (LAFY)","code":"LF","address":"3601 Deer Hill Road, Lafayette CA 94549","entries":"3481","exits":"3616","coordinates":[-122.395,37.893394]},
{"name":"Lafayette (LAFY)","code":"LF","address":"3601 Deer Hill Road, Lafayette CA 94549","entries":"3481","exits":"3616","coordinates":[-122.396,37.893394]},
{"name":"Lafayette (LAFY)","code":"LF","address":"3601 Deer Hill Road, Lafayette CA 94549","entries":"3481","exits":"3616","coordinates":[-122.397,37.893394]},
{"name":"Lafayette (LAFY)","code":"LF","address":"3601 Deer Hill Road, Lafayette CA 94549","entries":"3481","exits":"3616","coordinates":[-122.398,37.893394]},
{"name":"Lafayette (LAFY)","code":"LF","address":"3601 Deer Hill Road, Lafayette CA 94549","entries":"3481","exits":"3616","coordinates":[-122.399,37.893394]},
{"name":"Lafayette (LAFY)","code":"LF","address":"3601 Deer Hill Road, Lafayette CA 94549","entries":"3481","exits":"3616","coordinates":[-122.400,37.893394]},
{"name":"Lafayette (LAFY)","code":"LF","address":"3601 Deer Hill Road, Lafayette CA 94549","entries":"3481","exits":"3616","coordinates":[-122.401,37.893394]},
{"name":"Lafayette (LAFY)","code":"LF","address":"3601 Deer Hill Road, Lafayette CA 94549","entries":"3481","exits":"3616","coordinates":[-122.402,37.893394]},
{"name":"Lafayette (LAFY)","code":"LF","address":"3601 Deer Hill Road, Lafayette CA 94549","entries":"3481","exits":"3616","coordinates":[-122.403,37.893394]},
{"name":"Lafayette (LAFY)","code":"LF","address":"3601 Deer Hill Road, Lafayette CA 94549","entries":"3481","exits":"3616","coordinates":[-122.404,37.893394]},
{"name":"Lafayette (LAFY)","code":"LF","address":"3601 Deer Hill Road, Lafayette CA 94549","entries":"3481","exits":"3616","coordinates":[-122.405,37.893394]},
{"name":"Lafayette (LAFY)","code":"LF","address":"3601 Deer Hill Road, Lafayette CA 94549","entries":"3481","exits":"3616","coordinates":[-122.406,37.893394]},
{"name":"Lafayette (LAFY)","code":"LF","address":"3601 Deer Hill Road, Lafayette CA 94549","entries":"3481","exits":"3616","coordinates":[-122.407,37.893394]},
{"name":"Lafayette (LAFY)","code":"LF","address":"3601 Deer Hill Road, Lafayette CA 94549","entries":"3481","exits":"3616","coordinates":[-122.408,37.893394]},
{"name":"Lafayette (LAFY)","code":"LF","address":"3601 Deer Hill Road, Lafayette CA 94549","entries":"3481","exits":"3616","coordinates":[-122.409,37.893394]},
{"name":"Lafayette (LAFY)","code":"LF","address":"3601 Deer Hill Road, Lafayette CA 94549","entries":"3481","exits":"3616","coordinates":[-122.410,37.893394]},
{"name":"Lafayette (LAFY)","code":"LF","address":"3601 Deer Hill Road, Lafayette CA 94549","entries":"3481","exits":"3616","coordinates":[-122.411,37.893394]},
{"name":"Lafayette (LAFY)","code":"LF","address":"3601 Deer Hill Road, Lafayette CA 94549","entries":"3481","exits":"3616","coordinates":[-122.412,37.893394]},
{"name":"Lafayette (LAFY)","code":"LF","address":"3601 Deer Hill Road, Lafayette CA 94549","entries":"3481","exits":"3616","coordinates":[-122.413,37.893394]},
{"name":"Lafayette (LAFY)","code":"LF","address":"3601 Deer Hill Road, Lafayette CA 94549","entries":"3481","exits":"3616","coordinates":[-122.414,37.893394]},
{"name":"Lafayette (LAFY)","code":"LF","address":"3601 Deer Hill Road, Lafayette CA 94549","entries":"3481","exits":"3616","coordinates":[-122.415,37.893394]},
{"name":"Lafayette (LAFY)","code":"LF","address":"3601 Deer Hill Road, Lafayette CA 94549","entries":"3481","exits":"3616","coordinates":[-122.416,37.893394]},
{"name":"Lafayette (LAFY)","code":"LF","address":"3601 Deer Hill Road, Lafayette CA 94549","entries":"3481","exits":"3616","coordinates":[-122.417,37.893394]},
{"name":"Lafayette (LAFY)","code":"LF","address":"3601 Deer Hill Road, Lafayette CA 94549","entries":"3481","exits":"3616","coordinates":[-122.418,37.893394]},
{"name":"Lafayette (LAFY)","code":"LF","address":"3601 Deer Hill Road, Lafayette CA 94549","entries":"3481","exits":"3616","coordinates":[-122.419,37.893394]},
{"name":"Lafayette (LAFY)","code":"LF","address":"3601 Deer Hill Road, Lafayette CA 94549","entries":"3481","exits":"3616","coordinates":[-122.420,37.893394]},
{"name":"Lafayette (LAFY)","code":"LF","address":"3601 Deer Hill Road, Lafayette CA 94549","entries":"3481","exits":"3616","coordinates":[-122.421,37.893394]},
{"name":"Lafayette (LAFY)","code":"LF","address":"3601 Deer Hill Road, Lafayette CA 94549","entries":"3481","exits":"3616","coordinates":[-122.422,37.893394]},
{"name":"Lafayette (LAFY)","code":"LF","address":"3601 Deer Hill Road, Lafayette CA 94549","entries":"3481","exits":"3616","coordinates":[-122.423,37.893394]},
{"name":"Lafayette (LAFY)","code":"LF","address":"3601 Deer Hill Road, Lafayette CA 94549","entries":"3481","exits":"3616","coordinates":[-122.424,37.893394]},
{"name":"Lafayette (LAFY)","code":"LF","address":"3601 Deer Hill Road, Lafayette CA 94549","entries":"3481","exits":"3616","coordinates":[-122.425,37.893394]},
{"name":"Lafayette (LAFY)","code":"LF","address":"3601 Deer Hill Road, Lafayette CA 94549","entries":"3481","exits":"3616","coordinates":[-122.426,37.893394]},
{"name":"Lafayette (LAFY)","code":"LF","address":"3601 Deer Hill Road, Lafayette CA 94549","entries":"3481","exits":"3616","coordinates":[-122.427,37.893394]},
{"name":"Lafayette (LAFY)","code":"LF","address":"3601 Deer Hill Road, Lafayette CA 94549","entries":"3481","exits":"3616","coordinates":[-122.428,37.893394]},
{"name":"Lafayette (LAFY)","code":"LF","address":"3601 Deer Hill Road, Lafayette CA 94549","entries":"3481","exits":"3616","coordinates":[-122.429,37.893394]},
{"name":"Lafayette (LAFY)","code":"LF","address":"3601 Deer Hill Road, Lafayette CA 94549","entries":"3481","exits":"3616","coordinates":[-122.430,37.893394]},
{"name":"Lafayette (LAFY)","code":"LF","address":"3601 Deer Hill Road, Lafayette CA 94549","entries":"3481","exits":"3616","coordinates":[-122.431,37.893394]},
{"name":"Lafayette (LAFY)","code":"LF","address":"3601 Deer Hill Road, Lafayette CA 94549","entries":"3481","exits":"3616","coordinates":[-122.432,37.893394]},
{"name":"Lafayette (LAFY)","code":"LF","address":"3601 Deer Hill Road, Lafayette CA 94549","entries":"3481","exits":"3616","coordinates":[-122.433,37.893394]},
{"name":"Lafayette (LAFY)","code":"LF","address":"3601 Deer Hill Road, Lafayette CA 94549","entries":"3481","exits":"3616","coordinates":[-122.434,37.893394]},
{"name":"Lafayette (LAFY)","code":"LF","address":"3601 Deer Hill Road, Lafayette CA 94549","entries":"3481","exits":"3616","coordinates":[-122.435,37.893394]},
{"name":"Lafayette (LAFY)","code":"LF","address":"3601 Deer Hill Road, Lafayette CA 94549","entries":"3481","exits":"3616","coordinates":[-122.436,37.893394]},
{"name":"Lafayette (LAFY)","code":"LF","address":"3601 Deer Hill Road, Lafayette CA 94549","entries":"3481","exits":"3616","coordinates":[-122.437,37.893394]},
{"name":"Lafayette (LAFY)","code":"LF","address":"3601 Deer Hill Road, Lafayette CA 94549","entries":"3481","exits":"3616","coordinates":[-122.438,37.893394]},
{"name":"Lafayette (LAFY)","code":"LF","address":"3601 Deer Hill Road, Lafayette CA 94549","entries":"3481","exits":"3616","coordinates":[-122.439,37.893394]},
{"name":"Lafayette (LAFY)","code":"LF","address":"3601 Deer Hill Road, Lafayette CA 94549","entries":"3481","exits":"3616","coordinates":[-122.440,37.893394]},
{"name":"Lafayette (LAFY)","code":"LF","address":"3601 Deer Hill Road, Lafayette CA 94549","entries":"3481","exits":"3616","coordinates":[-122.441,37.893394]},
{"name":"Lafayette (LAFY)","code":"LF","address":"3601 Deer Hill Road, Lafayette CA 94549","entries":"3481","exits":"3616","coordinates":[-122.442,37.893394]},
{"name":"Lafayette (LAFY)","code":"LF","address":"3601 Deer Hill Road, Lafayette CA 94549","entries":"3481","exits":"3616","coordinates":[-122.443,37.893394]},
{"name":"Lafayette (LAFY)","code":"LF","address":"3601 Deer Hill Road, Lafayette CA 94549","entries":"3481","exits":"3616","coordinates":[-122.444,37.893394]},
{"name":"Lafayette (LAFY)","code":"LF","address":"3601 Deer Hill Road, Lafayette CA 94549","entries":"3481","exits":"3616","coordinates":[-122.445,37.893394]},
{"name":"Lafayette (LAFY)","code":"LF","address":"3601 Deer Hill Road, Lafayette CA 94549","entries":"3481","exits":"3616","coordinates":[-122.446,37.893394]},
{"name":"Lafayette (LAFY)","code":"LF","address":"3601 Deer Hill Road, Lafayette CA 94549","entries":"3481","exits":"3616","coordinates":[-122.447,37.893394]},
{"name":"Lafayette (LAFY)","code":"LF","address":"3601 Deer Hill Road, Lafayette CA 94549","entries":"3481","exits":"3616","coordinates":[-122.448,37.893394]},
{"name":"Lafayette (LAFY)","code":"LF","address":"3601 Deer Hill Road, Lafayette CA 94549","entries":"3481","exits":"3616","coordinates":[-122.449,37.893394]},
{"name":"Lafayette (LAFY)","code":"LF","address":"3601 Deer Hill Road, Lafayette CA 94549","entries":"3481","exits":"3616","coordinates":[-122.450,37.893394]},
{"name":"Lafayette (LAFY)","code":"LF","address":"3601 Deer Hill Road, Lafayette CA 94549","entries":"3481","exits":"3616","coordinates":[-122.451,37.893394]},
{"name":"Lafayette (LAFY)","code":"LF","address":"3601 Deer Hill Road, Lafayette CA 94549","entries":"3481","exits":"3616","coordinates":[-122.452,37.893394]},
{"name":"Lafayette (LAFY)","code":"LF","address":"3601 Deer Hill Road, Lafayette CA 94549","entries":"3481","exits":"3616","coordinates":[-122.453,37.893394]},
{"name":"Lafayette (LAFY)","code":"LF","address":"3601 Deer Hill Road, Lafayette CA 94549","entries":"3481","exits":"3616","coordinates":[-122.454,37.893394]},
{"name":"Lafayette (LAFY)","code":"LF","address":"3601 Deer Hill Road, Lafayette CA 94549","entries":"3481","exits":"3616","coordinates":[-122.455,37.893394]},
{"name":"Lafayette (LAFY)","code":"LF","address":"3601 Deer Hill Road, Lafayette CA 94549","entries":"3481","exits":"3616","coordinates":[-122.456,37.893394]},
{"name":"Lafayette (LAFY)","code":"LF","address":"3601 Deer Hill Road, Lafayette CA 94549","entries":"3481","exits":"3616","coordinates":[-122.457,37.893394]},
{"name":"Lafayette (LAFY)","code":"LF","address":"3601 Deer Hill Road, Lafayette CA 94549","entries":"3481","exits":"3616","coordinates":[-122.458,37.893394]},
{"name":"Lafayette (LAFY)","code":"LF","address":"3601 Deer Hill Road, Lafayette CA 94549","entries":"3481","exits":"3616","coordinates":[-122.459,37.893394]},
{"name":"Lafayette (LAFY)","code":"LF","address":"3601 Deer Hill Road, Lafayette CA 94549","entries":"3481","exits":"3616","coordinates":[-122.460,37.893394]},
{"name":"Lafayette (LAFY)","code":"LF","address":"3601 Deer Hill Road, Lafayette CA 94549","entries":"3481","exits":"3616","coordinates":[-122.461,37.893394]},
{"name":"Lafayette (LAFY)","code":"LF","address":"3601 Deer Hill Road, Lafayette CA 94549","entries":"3481","exits":"3616","coordinates":[-122.462,37.893394]},
{"name":"Lafayette (LAFY)","code":"LF","address":"3601 Deer Hill Road, Lafayette CA 94549","entries":"3481","exits":"3616","coordinates":[-122.463,37.893394]},
{"name":"Lafayette (LAFY)","code":"LF","address":"3601 Deer Hill Road, Lafayette CA 94549","entries":"3481","exits":"3616","coordinates":[-122.464,37.893394]},
{"name":"Lafayette (LAFY)","code":"LF","address":"3601 Deer Hill Road, Lafayette CA 94549","entries":"3481","exits":"3616","coordinates":[-122.465,37.893394]},
{"name":"Lafayette (LAFY)","code":"LF","address":"3601 Deer Hill Road, Lafayette CA 94549","entries":"3481","exits":"3616","coordinates":[-122.466,37.893394]},
{"name":"Lafayette (LAFY)","code":"LF","address":"3601 Deer Hill Road, Lafayette CA 94549","entries":"3481","exits":"3616","coordinates":[-122.467,37.893394]},
{"name":"Lafayette (LAFY)","code":"LF","address":"3601 Deer Hill Road, Lafayette CA 94549","entries":"3481","exits":"3616","coordinates":[-122.468,37.893394]},
{"name":"Lafayette (LAFY)","code":"LF","address":"3601 Deer Hill Road, Lafayette CA 94549","entries":"3481","exits":"3616","coordinates":[-122.469,37.893394]},
{"name":"Lafayette (LAFY)","code":"LF","address":"3601 Deer Hill Road, Lafayette CA 94549","entries":"3481","exits":"3616","coordinates":[-122.470,37.893394]},
{"name":"Lafayette (LAFY)","code":"LF","address":"3601 Deer Hill Road, Lafayette CA 94549","entries":"3481","exits":"3616","coordinates":[-122.471,37.893394]},
{"name":"Lafayette (LAFY)","code":"LF","address":"3601 Deer Hill Road, Lafayette CA 94549","entries":"3481","exits":"3616","coordinates":[-122.472,37.893394]},
{"name":"Lafayette (LAFY)","code":"LF","address":"3601 Deer Hill Road, Lafayette CA 94549","entries":"3481","exits":"3616","coordinates":[-122.473,37.893394]},
{"name":"Lafayette (LAFY)","code":"LF","address":"3601 Deer Hill Road, Lafayette CA 94549","entries":"3481","exits":"3616","coordinates":[-122.474,37.893394]},
{"name":"Lafayette (LAFY)","code":"LF","address":"3601 Deer Hill Road, Lafayette CA 94549","entries":"3481","exits":"3616","coordinates":[-122.475,37.893394]},
{"name":"Lafayette (LAFY)","code":"LF","address":"3601 Deer Hill Road, Lafayette CA 94549","entries":"3481","exits":"3616","coordinates":[-122.476,37.893394]},
{"name":"Lafayette (LAFY)","code":"LF","address":"3601 Deer Hill Road, Lafayette CA 94549","entries":"3481","exits":"3616","coordinates":[-122.477,37.893394]},
{"name":"Lafayette (LAFY)","code":"LF","address":"3601 Deer Hill Road, Lafayette CA 94549","entries":"3481","exits":"3616","coordinates":[-122.478,37.893394]},
{"name":"Lafayette (LAFY)","code":"LF","address":"3601 Deer Hill Road, Lafayette CA 94549","entries":"3481","exits":"3616","coordinates":[-122.479,37.893394]},
{"name":"Lafayette (LAFY)","code":"LF","address":"3601 Deer Hill Road, Lafayette CA 94549","entries":"3481","exits":"3616","coordinates":[-122.480,37.893394]},
{"name":"Lafayette (LAFY)","code":"LF","address":"3601 Deer Hill Road, Lafayette CA 94549","entries":"3481","exits":"3616","coordinates":[-122.481,37.893394]},
{"name":"Lafayette (LAFY)","code":"LF","address":"3601 Deer Hill Road, Lafayette CA 94549","entries":"3481","exits":"3616","coordinates":[-122.482,37.893394]},
{"name":"Lafayette (LAFY)","code":"LF","address":"3601 Deer Hill Road, Lafayette CA 94549","entries":"3481","exits":"3616","coordinates":[-122.483,37.893394]},
{"name":"Lafayette (LAFY)","code":"LF","address":"3601 Deer Hill Road, Lafayette CA 94549","entries":"3481","exits":"3616","coordinates":[-122.484,37.893394]},
{"name":"Lafayette (LAFY)","code":"LF","address":"3601 Deer Hill Road, Lafayette CA 94549","entries":"3481","exits":"3616","coordinates":[-122.485,37.893394]},
{"name":"Lafayette (LAFY)","code":"LF","address":"3601 Deer Hill Road, Lafayette CA 94549","entries":"3481","exits":"3616","coordinates":[-122.486,37.893394]},
{"name":"Lafayette (LAFY)","code":"LF","address":"3601 Deer Hill Road, Lafayette CA 94549","entries":"3481","exits":"3616","coordinates":[-122.487,37.893394]},
{"name":"Lafayette (LAFY)","code":"LF","address":"3601 Deer Hill Road, Lafayette CA 94549","entries":"3481","exits":"3616","coordinates":[-122.488,37.893394]},
{"name":"Lafayette (LAFY)","code":"LF","address":"3601 Deer Hill Road, Lafayette CA 94549","entries":"3481","exits":"3616","coordinates":[-122.489,37.893394]},
{"name":"Lafayette (LAFY)","code":"LF","address":"3601 Deer Hill Road, Lafayette CA 94549","entries":"3481","exits":"3616","coordinates":[-122.490,37.893394]},
{"name":"Lafayette (LAFY)","code":"LF","address":"3601 Deer Hill Road, Lafayette CA 94549","entries":"3481","exits":"3616","coordinates":[-122.491,37.893394]},
{"name":"Lafayette (LAFY)","code":"LF","address":"3601 Deer Hill Road, Lafayette CA 94549","entries":"3481","exits":"3616","coordinates":[-122.492,37.893394]},
{"name":"Lafayette (LAFY)","code":"LF","address":"3601 Deer Hill Road, Lafayette CA 94549","entries":"3481","exits":"3616","coordinates":[-122.493,37.893394]},
{"name":"Lafayette (LAFY)","code":"LF","address":"3601 Deer Hill Road, Lafayette CA 94549","entries":"3481","exits":"3616","coordinates":[-122.494,37.893394]},
{"name":"Lafayette (LAFY)","code":"LF","address":"3601 Deer Hill Road, Lafayette CA 94549","entries":"3481","exits":"3616","coordinates":[-122.495,37.893394]},
{"name":"Lafayette (LAFY)","code":"LF","address":"3601 Deer Hill Road, Lafayette CA 94549","entries":"3481","exits":"3616","coordinates":[-122.496,37.893394]},
{"name":"Lafayette (LAFY)","code":"LF","address":"3601 Deer Hill Road, Lafayette CA 94549","entries":"3481","exits":"3616","coordinates":[-122.497,37.893394]},
{"name":"Lafayette (LAFY)","code":"LF","address":"3601 Deer Hill Road, Lafayette CA 94549","entries":"3481","exits":"3616","coordinates":[-122.498,37.893394]},
{"name":"Lafayette (LAFY)","code":"LF","address":"3601 Deer Hill Road, Lafayette CA 94549","entries":"3481","exits":"3616","coordinates":[-122.499,37.893394]},
{"name":"Lafayette (LAFY)","code":"LF","address":"3601 Deer Hill Road, Lafayette CA 94549","entries":"3481","exits":"3616","coordinates":[-122.500,37.893394]},
{"name":"Lafayette (LAFY)","code":"LF","address":"3601 Deer Hill Road, Lafayette CA 94549","entries":"3481","exits":"3616","coordinates":[-122.501,37.893394]},
{"name":"Lafayette (LAFY)","code":"LF","address":"3601 Deer Hill Road, Lafayette CA 94549","entries":"3481","exits":"3616","coordinates":[-122.502,37.893394]},
{"name":"Lafayette (LAFY)","code":"LF","address":"3601 Deer Hill Road, Lafayette CA 94549","entries":"3481","exits":"3616","coordinates":[-122.503,37.893394]},
{"name":"Lafayette (LAFY)","code":"LF","address":"3601 Deer Hill Road, Lafayette CA 94549","entries":"3481","exits":"3616","coordinates":[-122.504,37.893394]},
{"name":"Lafayette (LAFY)","code":"LF","address":"3601 Deer Hill Road, Lafayette CA 94549","entries":"3481","exits":"3616","coordinates":[-122.505,37.893394]},
{"name":"Lafayette (LAFY)","code":"LF","address":"3601 Deer Hill Road, Lafayette CA 94549","entries":"3481","exits":"3616","coordinates":[-122.506,37.893394]},
{"name":"Lafayette (LAFY)","code":"LF","address":"3601 Deer Hill Road, Lafayette CA 94549","entries":"3481","exits":"3616","coordinates":[-122.507,37.893394]},
{"name":"Lafayette (LAFY)","code":"LF","address":"3601 Deer Hill Road, Lafayette CA 94549","entries":"3481","exits":"3616","coordinates":[-122.508,37.893394]},
{"name":"Lafayette (LAFY)","code":"LF","address":"3601 Deer Hill Road, Lafayette CA 94549","entries":"3481","exits":"3616","coordinates":[-122.509,37.893394]},
{"name":"Lafayette (LAFY)","code":"LF","address":"3601 Deer Hill Road, Lafayette CA 94549","entries":"3481","exits":"3616","coordinates":[-122.510,37.893394]},
{"name":"Lafayette (LAFY)","code":"LF","address":"3601 Deer Hill Road, Lafayette CA 94549","entries":"3481","exits":"3616","coordinates":[-122.511,37.893394]},
{"name":"Lafayette (LAFY)","code":"LF","address":"3601 Deer Hill Road, Lafayette CA 94549","entries":"3481","exits":"3616","coordinates":[-122.512,37.893394]},
{"name":"Lafayette (LAFY)","code":"LF","address":"3601 Deer Hill Road, Lafayette CA 94549","entries":"3481","exits":"3616","coordinates":[-122.513,37.893394]},
{"name":"Lafayette (LAFY)","code":"LF","address":"3601 Deer Hill Road, Lafayette CA 94549","entries":"3481","exits":"3616","coordinates":[-122.514,37.893394]},
{"name":"Lafayette (LAFY)","code":"LF","address":"3601 Deer Hill Road, Lafayette CA 94549","entries":"3481","exits":"3616","coordinates":[-122.515,37.893394]},
{"name":"Lafayette (LAFY)","code":"LF","address":"3601 Deer Hill Road, Lafayette CA 94549","entries":"3481","exits":"3616","coordinates":[-122.516,37.893394]},
{"name":"Lafayette (LAFY)","code":"LF","address":"3601 Deer Hill Road, Lafayette CA 94549","entries":"3481","exits":"3616","coordinates":[-122.517,37.893394]},
{"name":"Lafayette (LAFY)","code":"LF","address":"3601 Deer Hill Road, Lafayette CA 94549","entries":"3481","exits":"3616","coordinates":[-122.518,37.893394]},
{"name":"Lafayette (LAFY)","code":"LF","address":"3601 Deer Hill Road, Lafayette CA 94549","entries":"3481","exits":"3616","coordinates":[-122.519,37.893394]},
{"name":"Lafayette (LAFY)","code":"LF","address":"3601 Deer Hill Road, Lafayette CA 94549","entries":"3481","exits":"3616","coordinates":[-122.520,37.893394]},
{"name":"Lafayette (LAFY)","code":"LF","address":"3601 Deer Hill Road, Lafayette CA 94549","entries":"3481","exits":"3616","coordinates":[-122.521,37.893394]},
{"name":"Lafayette (LAFY)","code":"LF","address":"3601 Deer Hill Road, Lafayette CA 94549","entries":"3481","exits":"3616","coordinates":[-122.522,37.893394]},
{"name":"Lafayette (LAFY)","code":"LF","address":"3601 Deer Hill Road, Lafayette CA 94549","entries":"3481","exits":"3616","coordinates":[-122.523,37.893394]},
{"name":"Lafayette (LAFY)","code":"LF","address":"3601 Deer Hill Road, Lafayette CA 94549","entries":"3481","exits":"3616","coordinates":[-122.524,37.893394]},
{"name":"Lafayette (LAFY)","code":"LF","address":"3601 Deer Hill Road, Lafayette CA 94549","entries":"3481","exits":"3616","coordinates":[-122.525,37.893394]},
{"name":"Lafayette (LAFY)","code":"LF","address":"3601 Deer Hill Road, Lafayette CA 94549","entries":"3481","exits":"3616","coordinates":[-122.526,37.893394]},
{"name":"Lafayette (LAFY)","code":"LF","address":"3601 Deer Hill Road, Lafayette CA 94549","entries":"3481","exits":"3616","coordinates":[-122.527,37.893394]},
{"name":"Lafayette (LAFY)","code":"LF","address":"3601 Deer Hill Road, Lafayette CA 94549","entries":"3481","exits":"3616","coordinates":[-122.528,37.893394]},
{"name":"Lafayette (LAFY)","code":"LF","address":"3601 Deer Hill Road, Lafayette CA 94549","entries":"3481","exits":"3616","coordinates":[-122.529,37.893394]},
{"name":"Lafayette (LAFY)","code":"LF","address":"3601 Deer Hill Road, Lafayette CA 94549","entries":"3481","exits":"3616","coordinates":[-122.530,37.893394]},
{"name":"Lafayette (LAFY)","code":"LF","address":"3601 Deer Hill Road, Lafayette CA 94549","entries":"3481","exits":"3616","coordinates":[-122.531,37.893394]},
{"name":"Lafayette (LAFY)","code":"LF","address":"3601 Deer Hill Road, Lafayette CA 94549","entries":"3481","exits":"3616","coordinates":[-122.532,37.893394]},
{"name":"Lafayette (LAFY)","code":"LF","address":"3601 Deer Hill Road, Lafayette CA 94549","entries":"3481","exits":"3616","coordinates":[-122.533,37.893394]},
{"name":"Lafayette (LAFY)","code":"LF","address":"3601 Deer Hill Road, Lafayette CA 94549","entries":"3481","exits":"3616","coordinates":[-122.534,37.893394]},
{"name":"Lafayette (LAFY)","code":"LF","address":"3601 Deer Hill Road, Lafayette CA 94549","entries":"3481","exits":"3616","coordinates":[-122.535,37.893394]},
{"name":"Lafayette (LAFY)","code":"LF","address":"3601 Deer Hill Road, Lafayette CA 94549","entries":"3481","exits":"3616","coordinates":[-122.536,37.893394]},
{"name":"Lafayette (LAFY)","code":"LF","address":"3601 Deer Hill Road, Lafayette CA 94549","entries":"3481","exits":"3616","coordinates":[-122.537,37.893394]},
{"name":"Lafayette (LAFY)","code":"LF","address":"3601 Deer Hill Road, Lafayette CA 94549","entries":"3481","exits":"3616","coordinates":[-122.538,37.893394]},
{"name":"Lafayette (LAFY)","code":"LF","address":"3601 Deer Hill Road, Lafayette CA 94549","entries":"3481","exits":"3616","coordinates":[-122.539,37.893394]},
{"name":"Lafayette (LAFY)","code":"LF","address":"3601 Deer Hill Road, Lafayette CA 94549","entries":"3481","exits":"3616","coordinates":[-122.540,37.893394]},
{"name":"Lafayette (LAFY)","code":"LF","address":"3601 Deer Hill Road, Lafayette CA 94549","entries":"3481","exits":"3616","coordinates":[-122.541,37.893394]},
{"name":"Lafayette (LAFY)","code":"LF","address":"3601 Deer Hill Road, Lafayette CA 94549","entries":"3481","exits":"3616","coordinates":[-122.542,37.893394]},
{"name":"Lafayette (LAFY)","code":"LF","address":"3601 Deer Hill Road, Lafayette CA 94549","entries":"3481","exits":"3616","coordinates":[-122.543,37.893394]},
{"name":"Lafayette (LAFY)","code":"LF","address":"3601 Deer Hill Road, Lafayette CA 94549","entries":"3481","exits":"3616","coordinates":[-122.544,37.893394]},
{"name":"Lafayette (LAFY)","code":"LF","address":"3601 Deer Hill Road, Lafayette CA 94549","entries":"3481","exits":"3616","coordinates":[-122.545,37.893394]},
{"name":"Lafayette (LAFY)","code":"LF","address":"3601 Deer Hill Road, Lafayette CA 94549","entries":"3481","exits":"3616","coordinates":[-122.546,37.893394]},
{"name":"Lafayette (LAFY)","code":"LF","address":"3601 Deer Hill Road, Lafayette CA 94549","entries":"3481","exits":"3616","coordinates":[-122.547,37.893394]},
{"name":"Lafayette (LAFY)","code":"LF","address":"3601 Deer Hill Road, Lafayette CA 94549","entries":"3481","exits":"3616","coordinates":[-122.548,37.893394]},
{"name":"Lafayette (LAFY)","code":"LF","address":"3601 Deer Hill Road, Lafayette CA 94549","entries":"3481","exits":"3616","coordinates":[-122.549,37.893394]},
{"name":"Lafayette (LAFY)","code":"LF","address":"3601 Deer Hill Road, Lafayette CA 94549","entries":"3481","exits":"3616","coordinates":[-122.550,37.893394]},
{"name":"Lafayette (LAFY)","code":"LF","address":"3601 Deer Hill Road, Lafayette CA 94549","entries":"3481","exits":"3616","coordinates":[-122.551,37.893394]},
{"name":"Lafayette (LAFY)","code":"LF","address":"3601 Deer Hill Road, Lafayette CA 94549","entries":"3481","exits":"3616","coordinates":[-122.552,37.893394]},
{"name":"Lafayette (LAFY)","code":"LF","address":"3601 Deer Hill Road, Lafayette CA 94549","entries":"3481","exits":"3616","coordinates":[-122.553,37.893394]},
{"name":"Lafayette (LAFY)","code":"LF","address":"3601 Deer Hill Road, Lafayette CA 94549","entries":"3481","exits":"3616","coordinates":[-122.554,37.893394]},
{"name":"Lafayette (LAFY)","code":"LF","address":"3601 Deer Hill Road, Lafayette CA 94549","entries":"3481","exits":"3616","coordinates":[-122.555,37.893394]},
{"name":"Lafayette (LAFY)","code":"LF","address":"3601 Deer Hill Road, Lafayette CA 94549","entries":"3481","exits":"3616","coordinates":[-122.556,37.893394]},
{"name":"Lafayette (LAFY)","code":"LF","address":"3601 Deer Hill Road, Lafayette CA 94549","entries":"3481","exits":"3616","coordinates":[-122.557,37.893394]},
{"name":"Lafayette (LAFY)","code":"LF","address":"3601 Deer Hill Road, Lafayette CA 94549","entries":"3481","exits":"3616","coordinates":[-122.558,37.893394]},
{"name":"Lafayette (LAFY)","code":"LF","address":"3601 Deer Hill Road, Lafayette CA 94549","entries":"3481","exits":"3616","coordinates":[-122.559,37.893394]},
{"name":"Lafayette (LAFY)","code":"LF","address":"3601 Deer Hill Road, Lafayette CA 94549","entries":"3481","exits":"3616","coordinates":[-122.560,37.893394]},
{"name":"Lafayette (LAFY)","code":"LF","address":"3601 Deer Hill Road, Lafayette CA 94549","entries":"3481","exits":"3616","coordinates":[-122.561,37.893394]},
{"name":"Lafayette (LAFY)","code":"LF","address":"3601 Deer Hill Road, Lafayette CA 94549","entries":"3481","exits":"3616","coordinates":[-122.562,37.893394]},
{"name":"Lafayette (LAFY)","code":"LF","address":"3601 Deer Hill Road, Lafayette CA 94549","entries":"3481","exits":"3616","coordinates":[-122.563,37.893394]},
{"name":"Lafayette (LAFY)","code":"LF","address":"3601 Deer Hill Road, Lafayette CA 94549","entries":"3481","exits":"3616","coordinates":[-122.564,37.893394]},
{"name":"Lafayette (LAFY)","code":"LF","address":"3601 Deer Hill Road, Lafayette CA 94549","entries":"3481","exits":"3616","coordinates":[-122.565,37.893394]},
{"name":"Lafayette (LAFY)","code":"LF","address":"3601 Deer Hill Road, Lafayette CA 94549","entries":"3481","exits":"3616","coordinates":[-122.566,37.893394]},
{"name":"Lafayette (LAFY)","code":"LF","address":"3601 Deer Hill Road, Lafayette CA 94549","entries":"3481","exits":"3616","coordinates":[-122.567,37.893394]},
{"name":"Lafayette (LAFY)","code":"LF","address":"3601 Deer Hill Road, Lafayette CA 94549","entries":"3481","exits":"3616","coordinates":[-122.568,37.893394]},
{"name":"Lafayette (LAFY)","code":"LF","address":"3601 Deer Hill Road, Lafayette CA 94549","entries":"3481","exits":"3616","coordinates":[-122.569,37.893394]},
{"name":"Lafayette (LAFY)","code":"LF","address":"3601 Deer Hill Road, Lafayette CA 94549","entries":"3481","exits":"3616","coordinates":[-122.570,37.893394]},
{"name":"Lafayette (LAFY)","code":"LF","address":"3601 Deer Hill Road, Lafayette CA 94549","entries":"3481","exits":"3616","coordinates":[-122.571,37.893394]},
{"name":"Lafayette (LAFY)","code":"LF","address":"3601 Deer Hill Road, Lafayette CA 94549","entries":"3481","exits":"3616","coordinates":[-122.572,37.893394]},
{"name":"Lafayette (LAFY)","code":"LF","address":"3601 Deer Hill Road, Lafayette CA 94549","entries":"3481","exits":"3616","coordinates":[-122.573,37.893394]},
{"name":"Lafayette (LAFY)","code":"LF","address":"3601 Deer Hill Road, Lafayette CA 94549","entries":"3481","exits":"3616","coordinates":[-122.574,37.893394]},
{"name":"Lafayette (LAFY)","code":"LF","address":"3601 Deer Hill Road, Lafayette CA 94549","entries":"3481","exits":"3616","coordinates":[-122.575,37.893394]},
{"name":"Lafayette (LAFY)","code":"LF","address":"3601 Deer Hill Road, Lafayette CA 94549","entries":"3481","exits":"3616","coordinates":[-122.576,37.893394]},
{"name":"Lafayette (LAFY)","code":"LF","address":"3601 Deer Hill Road, Lafayette CA 94549","entries":"3481","exits":"3616","coordinates":[-122.577,37.893394]},
{"name":"Lafayette (LAFY)","code":"LF","address":"3601 Deer Hill Road, Lafayette CA 94549","entries":"3481","exits":"3616","coordinates":[-122.578,37.893394]},
{"name":"Lafayette (LAFY)","code":"LF","address":"3601 Deer Hill Road, Lafayette CA 94549","entries":"3481","exits":"3616","coordinates":[-122.579,37.893394]},
{"name":"Lafayette (LAFY)","code":"LF","address":"3601 Deer Hill Road, Lafayette CA 94549","entries":"3481","exits":"3616","coordinates":[-122.580,37.893394]},
{"name":"Lafayette (LAFY)","code":"LF","address":"3601 Deer Hill Road, Lafayette CA 94549","entries":"3481","exits":"3616","coordinates":[-122.581,37.893394]},
{"name":"Lafayette (LAFY)","code":"LF","address":"3601 Deer Hill Road, Lafayette CA 94549","entries":"3481","exits":"3616","coordinates":[-122.582,37.893394]},
{"name":"Lafayette (LAFY)","code":"LF","address":"3601 Deer Hill Road, Lafayette CA 94549","entries":"3481","exits":"3616","coordinates":[-122.583,37.893394]},
{"name":"Lafayette (LAFY)","code":"LF","address":"3601 Deer Hill Road, Lafayette CA 94549","entries":"3481","exits":"3616","coordinates":[-122.584,37.893394]},
{"name":"Lafayette (LAFY)","code":"LF","address":"3601 Deer Hill Road, Lafayette CA 94549","entries":"3481","exits":"3616","coordinates":[-122.585,37.893394]},
{"name":"Lafayette (LAFY)","code":"LF","address":"3601 Deer Hill Road, Lafayette CA 94549","entries":"3481","exits":"3616","coordinates":[-122.586,37.893394]},
{"name":"Lafayette (LAFY)","code":"LF","address":"3601 Deer Hill Road, Lafayette CA 94549","entries":"3481","exits":"3616","coordinates":[-122.587,37.893394]},
{"name":"Lafayette (LAFY)","code":"LF","address":"3601 Deer Hill Road, Lafayette CA 94549","entries":"3481","exits":"3616","coordinates":[-122.588,37.893394]},
{"name":"Lafayette (LAFY)","code":"LF","address":"3601 Deer Hill Road, Lafayette CA 94549","entries":"3481","exits":"3616","coordinates":[-122.589,37.893394]},
{"name":"Lafayette (LAFY)","code":"LF","address":"3601 Deer Hill Road, Lafayette CA 94549","entries":"3481","exits":"3616","coordinates":[-122.590,37.893394]},
{"name":"Lafayette (LAFY)","code":"LF","address":"3601 Deer Hill Road, Lafayette CA 94549","entries":"3481","exits":"3616","coordinates":[-122.591,37.893394]},
{"name":"Lafayette (LAFY)","code":"LF","address":"3601 Deer Hill Road, Lafayette CA 94549","entries":"3481","exits":"3616","coordinates":[-122.592,37.893394]},
{"name":"Lafayette (LAFY)","code":"LF","address":"3601 Deer Hill Road, Lafayette CA 94549","entries":"3481","exits":"3616","coordinates":[-122.593,37.893394]},
{"name":"Lafayette (LAFY)","code":"LF","address":"3601 Deer Hill Road, Lafayette CA 94549","entries":"3481","exits":"3616","coordinates":[-122.594,37.893394]},
{"name":"Lafayette (LAFY)","code":"LF","address":"3601 Deer Hill Road, Lafayette CA 94549","entries":"3481","exits":"3616","coordinates":[-122.595,37.893394]},
{"name":"Lafayette (LAFY)","code":"LF","address":"3601 Deer Hill Road, Lafayette CA 94549","entries":"3481","exits":"3616","coordinates":[-122.596,37.893394]},
{"name":"Lafayette (LAFY)","code":"LF","address":"3601 Deer Hill Road, Lafayette CA 94549","entries":"3481","exits":"3616","coordinates":[-122.597,37.893394]},
{"name":"Lafayette (LAFY)","code":"LF","address":"3601 Deer Hill Road, Lafayette CA 94549","entries":"3481","exits":"3616","coordinates":[-122.598,37.893394]},
{"name":"Lafayette (LAFY)","code":"LF","address":"3601 Deer Hill Road, Lafayette CA 94549","entries":"3481","exits":"3616","coordinates":[-122.599,37.893394]},
{"name":"Lafayette (LAFY)","code":"LF","address":"3601 Deer Hill Road, Lafayette CA 94549","entries":"3481","exits":"3616","coordinates":[-122.600,37.893394]},
{"name":"Lafayette (LAFY)","code":"LF","address":"3601 Deer Hill Road, Lafayette CA 94549","entries":"3481","exits":"3616","coordinates":[-122.601,37.893394]},
{"name":"Lafayette (LAFY)","code":"LF","address":"3601 Deer Hill Road, Lafayette CA 94549","entries":"3481","exits":"3616","coordinates":[-122.602,37.893394]},
{"name":"Lafayette (LAFY)","code":"LF","address":"3601 Deer Hill Road, Lafayette CA 94549","entries":"3481","exits":"3616","coordinates":[-122.603,37.893394]},
{"name":"Lafayette (LAFY)","code":"LF","address":"3601 Deer Hill Road, Lafayette CA 94549","entries":"3481","exits":"3616","coordinates":[-122.604,37.893394]},
{"name":"Lafayette (LAFY)","code":"LF","address":"3601 Deer Hill Road, Lafayette CA 94549","entries":"3481","exits":"3616","coordinates":[-122.605,37.893394]},
{"name":"Lafayette (LAFY)","code":"LF","address":"3601 Deer Hill Road, Lafayette CA 94549","entries":"3481","exits":"3616","coordinates":[-122.606,37.893394]},
{"name":"Lafayette (LAFY)","code":"LF","address":"3601 Deer Hill Road, Lafayette CA 94549","entries":"3481","exits":"3616","coordinates":[-122.607,37.893394]},
{"name":"Lafayette (LAFY)","code":"LF","address":"3601 Deer Hill Road, Lafayette CA 94549","entries":"3481","exits":"3616","coordinates":[-122.608,37.893394]},
{"name":"Lafayette (LAFY)","code":"LF","address":"3601 Deer Hill Road, Lafayette CA 94549","entries":"3481","exits":"3616","coordinates":[-122.609,37.893394]},
{"name":"Lafayette (LAFY)","code":"LF","address":"3601 Deer Hill Road, Lafayette CA 94549","entries":"3481","exits":"3616","coordinates":[-122.610,37.893394]},
{"name":"Lafayette (LAFY)","code":"LF","address":"3601 Deer Hill Road, Lafayette CA 94549","entries":"3481","exits":"3616","coordinates":[-122.611,37.893394]},
{"name":"Lafayette (LAFY)","code":"LF","address":"3601 Deer Hill Road, Lafayette CA 94549","entries":"3481","exits":"3616","coordinates":[-122.612,37.893394]},
{"name":"Lafayette (LAFY)","code":"LF","address":"3601 Deer Hill Road, Lafayette CA 94549","entries":"3481","exits":"3616","coordinates":[-122.613,37.893394]},
{"name":"Lafayette (LAFY)","code":"LF","address":"3601 Deer Hill Road, Lafayette CA 94549","entries":"3481","exits":"3616","coordinates":[-122.614,37.893394]},
{"name":"Lafayette (LAFY)","code":"LF","address":"3601 Deer Hill Road, Lafayette CA 94549","entries":"3481","exits":"3616","coordinates":[-122.615,37.893394]},
{"name":"Lafayette (LAFY)","code":"LF","address":"3601 Deer Hill Road, Lafayette CA 94549","entries":"3481","exits":"3616","coordinates":[-122.616,37.893394]},
{"name":"Lafayette (LAFY)","code":"LF","address":"3601 Deer Hill Road, Lafayette CA 94549","entries":"3481","exits":"3616","coordinates":[-122.617,37.893394]},
{"name":"Lafayette (LAFY)","code":"LF","address":"3601 Deer Hill Road, Lafayette CA 94549","entries":"3481","exits":"3616","coordinates":[-122.618,37.893394]},
{"name":"Lafayette (LAFY)","code":"LF","address":"3601 Deer Hill Road, Lafayette CA 94549","entries":"3481","exits":"3616","coordinates":[-122.619,37.893394]},
{"name":"Lafayette (LAFY)","code":"LF","address":"3601 Deer Hill Road, Lafayette CA 94549","entries":"3481","exits":"3616","coordinates":[-122.620,37.893394]},
{"name":"Lafayette (LAFY)","code":"LF","address":"3601 Deer Hill Road, Lafayette CA 94549","entries":"3481","exits":"3616","coordinates":[-122.621,37.893394]},
{"name":"Lafayette (LAFY)","code":"LF","address":"3601 Deer Hill Road, Lafayette CA 94549","entries":"3481","exits":"3616","coordinates":[-122.622,37.893394]},
{"name":"Lafayette (LAFY)","code":"LF","address":"3601 Deer Hill Road, Lafayette CA 94549","entries":"3481","exits":"3616","coordinates":[-122.623,37.893394]},
{"name":"Lafayette (LAFY)","code":"LF","address":"3601 Deer Hill Road, Lafayette CA 94549","entries":"3481","exits":"3616","coordinates":[-122.624,37.893394]},
{"name":"Lafayette (LAFY)","code":"LF","address":"3601 Deer Hill Road, Lafayette CA 94549","entries":"3481","exits":"3616","coordinates":[-122.625,37.893394]},
{"name":"Lafayette (LAFY)","code":"LF","address":"3601 Deer Hill Road, Lafayette CA 94549","entries":"3481","exits":"3616","coordinates":[-122.626,37.893394]},
{"name":"Lafayette (LAFY)","code":"LF","address":"3601 Deer Hill Road, Lafayette CA 94549","entries":"3481","exits":"3616","coordinates":[-122.627,37.893394]},
{"name":"Lafayette (LAFY)","code":"LF","address":"3601 Deer Hill Road, Lafayette CA 94549","entries":"3481","exits":"3616","coordinates":[-122.628,37.893394]},
{"name":"Lafayette (LAFY)","code":"LF","address":"3601 Deer Hill Road, Lafayette CA 94549","entries":"3481","exits":"3616","coordinates":[-122.629,37.893394]},
{"name":"Lafayette (LAFY)","code":"LF","address":"3601 Deer Hill Road, Lafayette CA 94549","entries":"3481","exits":"3616","coordinates":[-122.630,37.893394]},
{"name":"Lafayette (LAFY)","code":"LF","address":"3601 Deer Hill Road, Lafayette CA 94549","entries":"3481","exits":"3616","coordinates":[-122.631,37.893394]},
{"name":"Lafayette (LAFY)","code":"LF","address":"3601 Deer Hill Road, Lafayette CA 94549","entries":"3481","exits":"3616","coordinates":[-122.632,37.893394]},
{"name":"Lafayette (LAFY)","code":"LF","address":"3601 Deer Hill Road, Lafayette CA 94549","entries":"3481","exits":"3616","coordinates":[-122.633,37.893394]},
{"name":"Lafayette (LAFY)","code":"LF","address":"3601 Deer Hill Road, Lafayette CA 94549","entries":"3481","exits":"3616","coordinates":[-122.634,37.893394]},
{"name":"Lafayette (LAFY)","code":"LF","address":"3601 Deer Hill Road, Lafayette CA 94549","entries":"3481","exits":"3616","coordinates":[-122.635,37.893394]},
{"name":"Lafayette (LAFY)","code":"LF","address":"3601 Deer Hill Road, Lafayette CA 94549","entries":"3481","exits":"3616","coordinates":[-122.636,37.893394]},
{"name":"Lafayette (LAFY)","code":"LF","address":"3601 Deer Hill Road, Lafayette CA 94549","entries":"3481","exits":"3616","coordinates":[-122.637,37.893394]},
{"name":"Lafayette (LAFY)","code":"LF","address":"3601 Deer Hill Road, Lafayette CA 94549","entries":"3481","exits":"3616","coordinates":[-122.638,37.893394]},
{"name":"Lafayette (LAFY)","code":"LF","address":"3601 Deer Hill Road, Lafayette CA 94549","entries":"3481","exits":"3616","coordinates":[-122.639,37.893394]},
{"name":"Lafayette (LAFY)","code":"LF","address":"3601 Deer Hill Road, Lafayette CA 94549","entries":"3481","exits":"3616","coordinates":[-122.640,37.893394]},
{"name":"Lafayette (LAFY)","code":"LF","address":"3601 Deer Hill Road, Lafayette CA 94549","entries":"3481","exits":"3616","coordinates":[-122.641,37.893394]},
{"name":"Lafayette (LAFY)","code":"LF","address":"3601 Deer Hill Road, Lafayette CA 94549","entries":"3481","exits":"3616","coordinates":[-122.642,37.893394]},
{"name":"Lafayette (LAFY)","code":"LF","address":"3601 Deer Hill Road, Lafayette CA 94549","entries":"3481","exits":"3616","coordinates":[-122.643,37.893394]},
{"name":"Lafayette (LAFY)","code":"LF","address":"3601 Deer Hill Road, Lafayette CA 94549","entries":"3481","exits":"3616","coordinates":[-122.644,37.893394]},
{"name":"Lafayette (LAFY)","code":"LF","address":"3601 Deer Hill Road, Lafayette CA 94549","entries":"3481","exits":"3616","coordinates":[-122.645,37.893394]},
{"name":"Lafayette (LAFY)","code":"LF","address":"3601 Deer Hill Road, Lafayette CA 94549","entries":"3481","exits":"3616","coordinates":[-122.646,37.893394]},
{"name":"Lafayette (LAFY)","code":"LF","address":"3601 Deer Hill Road, Lafayette CA 94549","entries":"3481","exits":"3616","coordinates":[-122.647,37.893394]},
{"name":"Lafayette (LAFY)","code":"LF","address":"3601 Deer Hill Road, Lafayette CA 94549","entries":"3481","exits":"3616","coordinates":[-122.648,37.893394]},
{"name":"Lafayette (LAFY)","code":"LF","address":"3601 Deer Hill Road, Lafayette CA 94549","entries":"3481","exits":"3616","coordinates":[-122.649,37.893394]},
{"name":"Lafayette (LAFY)","code":"LF","address":"3601 Deer Hill Road, Lafayette CA 94549","entries":"3481","exits":"3616","coordinates":[-122.650,37.893394]},
{"name":"Lafayette (LAFY)","code":"LF","address":"3601 Deer Hill Road, Lafayette CA 94549","entries":"3481","exits":"3616","coordinates":[-122.651,37.893394]},
{"name":"Lafayette (LAFY)","code":"LF","address":"3601 Deer Hill Road, Lafayette CA 94549","entries":"3481","exits":"3616","coordinates":[-122.652,37.893394]},
{"name":"Lafayette (LAFY)","code":"LF","address":"3601 Deer Hill Road, Lafayette CA 94549","entries":"3481","exits":"3616","coordinates":[-122.653,37.893394]},
{"name":"Lafayette (LAFY)","code":"LF","address":"3601 Deer Hill Road, Lafayette CA 94549","entries":"3481","exits":"3616","coordinates":[-122.654,37.893394]},
{"name":"Lafayette (LAFY)","code":"LF","address":"3601 Deer Hill Road, Lafayette CA 94549","entries":"3481","exits":"3616","coordinates":[-122.655,37.893394]},
{"name":"Lafayette (LAFY)","code":"LF","address":"3601 Deer Hill Road, Lafayette CA 94549","entries":"3481","exits":"3616","coordinates":[-122.656,37.893394]},
{"name":"Lafayette (LAFY)","code":"LF","address":"3601 Deer Hill Road, Lafayette CA 94549","entries":"3481","exits":"3616","coordinates":[-122.657,37.893394]},
{"name":"Lafayette (LAFY)","code":"LF","address":"3601 Deer Hill Road, Lafayette CA 94549","entries":"3481","exits":"3616","coordinates":[-122.658,37.893394]},
{"name":"Lafayette (LAFY)","code":"LF","address":"3601 Deer Hill Road, Lafayette CA 94549","entries":"3481","exits":"3616","coordinates":[-122.659,37.893394]},
{"name":"Lafayette (LAFY)","code":"LF","address":"3601 Deer Hill Road, Lafayette CA 94549","entries":"3481","exits":"3616","coordinates":[-122.660,37.893394]},
{"name":"Lafayette (LAFY)","code":"LF","address":"3601 Deer Hill Road, Lafayette CA 94549","entries":"3481","exits":"3616","coordinates":[-122.661,37.893394]},
{"name":"Lafayette (LAFY)","code":"LF","address":"3601 Deer Hill Road, Lafayette CA 94549","entries":"3481","exits":"3616","coordinates":[-122.662,37.893394]},
{"name":"Lafayette (LAFY)","code":"LF","address":"3601 Deer Hill Road, Lafayette CA 94549","entries":"3481","exits":"3616","coordinates":[-122.663,37.893394]},
{"name":"Lafayette (LAFY)","code":"LF","address":"3601 Deer Hill Road, Lafayette CA 94549","entries":"3481","exits":"3616","coordinates":[-122.664,37.893394]},
{"name":"Lafayette (LAFY)","code":"LF","address":"3601 Deer Hill Road, Lafayette CA 94549","entries":"3481","exits":"3616","coordinates":[-122.665,37.893394]},
{"name":"Lafayette (LAFY)","code":"LF","address":"3601 Deer Hill Road, Lafayette CA 94549","entries":"3481","exits":"3616","coordinates":[-122.666,37.893394]},
{"name":"Lafayette (LAFY)","code":"LF","address":"3601 Deer Hill Road, Lafayette CA 94549","entries":"3481","exits":"3616","coordinates":[-122.667,37.893394]},
{"name":"Lafayette (LAFY)","code":"LF","address":"3601 Deer Hill Road, Lafayette CA 94549","entries":"3481","exits":"3616","coordinates":[-122.668,37.893394]},
{"name":"Lafayette (LAFY)","code":"LF","address":"3601 Deer Hill Road, Lafayette CA 94549","entries":"3481","exits":"3616","coordinates":[-122.669,37.893394]},
{"name":"Lafayette (LAFY)","code":"LF","address":"3601 Deer Hill Road, Lafayette CA 94549","entries":"3481","exits":"3616","coordinates":[-122.670,37.893394]},
{"name":"Lafayette (LAFY)","code":"LF","address":"3601 Deer Hill Road, Lafayette CA 94549","entries":"3481","exits":"3616","coordinates":[-122.671,37.893394]},
{"name":"Lafayette (LAFY)","code":"LF","address":"3601 Deer Hill Road, Lafayette CA 94549","entries":"3481","exits":"3616","coordinates":[-122.672,37.893394]},
{"name":"Lafayette (LAFY)","code":"LF","address":"3601 Deer Hill Road, Lafayette CA 94549","entries":"3481","exits":"3616","coordinates":[-122.673,37.893394]},
{"name":"Lafayette (LAFY)","code":"LF","address":"3601 Deer Hill Road, Lafayette CA 94549","entries":"3481","exits":"3616","coordinates":[-122.674,37.893394]},
{"name":"Lafayette (LAFY)","code":"LF","address":"3601 Deer Hill Road, Lafayette CA 94549","entries":"3481","exits":"3616","coordinates":[-122.675,37.893394]},
{"name":"Lafayette (LAFY)","code":"LF","address":"3601 Deer Hill Road, Lafayette CA 94549","entries":"3481","exits":"3616","coordinates":[-122.676,37.893394]},
{"name":"Lafayette (LAFY)","code":"LF","address":"3601 Deer Hill Road, Lafayette CA 94549","entries":"3481","exits":"3616","coordinates":[-122.677,37.893394]},
{"name":"Lafayette (LAFY)","code":"LF","address":"3601 Deer Hill Road, Lafayette CA 94549","entries":"3481","exits":"3616","coordinates":[-122.678,37.893394]},
{"name":"Lafayette (LAFY)","code":"LF","address":"3601 Deer Hill Road, Lafayette CA 94549","entries":"3481","exits":"3616","coordinates":[-122.679,37.893394]},
{"name":"Lafayette (LAFY)","code":"LF","address":"3601 Deer Hill Road, Lafayette CA 94549","entries":"3481","exits":"3616","coordinates":[-122.680,37.893394]},
{"name":"Lafayette (LAFY)","code":"LF","address":"3601 Deer Hill Road, Lafayette CA 94549","entries":"3481","exits":"3616","coordinates":[-122.681,37.893394]},
{"name":"Lafayette (LAFY)","code":"LF","address":"3601 Deer Hill Road, Lafayette CA 94549","entries":"3481","exits":"3616","coordinates":[-122.682,37.893394]},
{"name":"Lafayette (LAFY)","code":"LF","address":"3601 Deer Hill Road, Lafayette CA 94549","entries":"3481","exits":"3616","coordinates":[-122.683,37.893394]},
{"name":"Lafayette (LAFY)","code":"LF","address":"3601 Deer Hill Road, Lafayette CA 94549","entries":"3481","exits":"3616","coordinates":[-122.684,37.893394]},
{"name":"Lafayette (LAFY)","code":"LF","address":"3601 Deer Hill Road, Lafayette CA 94549","entries":"3481","exits":"3616","coordinates":[-122.685,37.893394]},
{"name":"Lafayette (LAFY)","code":"LF","address":"3601 Deer Hill Road, Lafayette CA 94549","entries":"3481","exits":"3616","coordinates":[-122.686,37.893394]},
{"name":"Lafayette (LAFY)","code":"LF","address":"3601 Deer Hill Road, Lafayette CA 94549","entries":"3481","exits":"3616","coordinates":[-122.687,37.893394]},
{"name":"Lafayette (LAFY)","code":"LF","address":"3601 Deer Hill Road, Lafayette CA 94549","entries":"3481","exits":"3616","coordinates":[-122.688,37.893394]},
{"name":"Lafayette (LAFY)","code":"LF","address":"3601 Deer Hill Road, Lafayette CA 94549","entries":"3481","exits":"3616","coordinates":[-122.689,37.893394]},
{"name":"Lafayette (LAFY)","code":"LF","address":"3601 Deer Hill Road, Lafayette CA 94549","entries":"3481","exits":"3616","coordinates":[-122.690,37.893394]},
{"name":"Lafayette (LAFY)","code":"LF","address":"3601 Deer Hill Road, Lafayette CA 94549","entries":"3481","exits":"3616","coordinates":[-122.691,37.893394]},
{"name":"Lafayette (LAFY)","code":"LF","address":"3601 Deer Hill Road, Lafayette CA 94549","entries":"3481","exits":"3616","coordinates":[-122.692,37.893394]},
{"name":"Lafayette (LAFY)","code":"LF","address":"3601 Deer Hill Road, Lafayette CA 94549","entries":"3481","exits":"3616","coordinates":[-122.693,37.893394]},
{"name":"Lafayette (LAFY)","code":"LF","address":"3601 Deer Hill Road, Lafayette CA 94549","entries":"3481","exits":"3616","coordinates":[-122.694,37.893394]},
{"name":"Lafayette (LAFY)","code":"LF","address":"3601 Deer Hill Road, Lafayette CA 94549","entries":"3481","exits":"3616","coordinates":[-122.695,37.893394]},
{"name":"Lafayette (LAFY)","code":"LF","address":"3601 Deer Hill Road, Lafayette CA 94549","entries":"3481","exits":"3616","coordinates":[-122.696,37.893394]},
{"name":"Lafayette (LAFY)","code":"LF","address":"3601 Deer Hill Road, Lafayette CA 94549","entries":"3481","exits":"3616","coordinates":[-122.697,37.893394]},
{"name":"Lafayette (LAFY)","code":"LF","address":"3601 Deer Hill Road, Lafayette CA 94549","entries":"3481","exits":"3616","coordinates":[-122.698,37.893394]},
{"name":"Lafayette (LAFY)","code":"LF","address":"3601 Deer Hill Road, Lafayette CA 94549","entries":"3481","exits":"3616","coordinates":[-122.699,37.893394]},
{"name":"Lafayette (LAFY)","code":"LF","address":"3601 Deer Hill Road, Lafayette CA 94549","entries":"3481","exits":"3616","coordinates":[-122.700,37.893394]},
{"name":"Lafayette (LAFY)","code":"LF","address":"3601 Deer Hill Road, Lafayette CA 94549","entries":"3481","exits":"3616","coordinates":[-122.701,37.893394]},
{"name":"Lafayette (LAFY)","code":"LF","address":"3601 Deer Hill Road, Lafayette CA 94549","entries":"3481","exits":"3616","coordinates":[-122.702,37.893394]},
{"name":"Lafayette (LAFY)","code":"LF","address":"3601 Deer Hill Road, Lafayette CA 94549","entries":"3481","exits":"3616","coordinates":[-122.703,37.893394]},
{"name":"Lafayette (LAFY)","code":"LF","address":"3601 Deer Hill Road, Lafayette CA 94549","entries":"3481","exits":"3616","coordinates":[-122.704,37.893394]},
{"name":"Lafayette (LAFY)","code":"LF","address":"3601 Deer Hill Road, Lafayette CA 94549","entries":"3481","exits":"3616","coordinates":[-122.705,37.893394]},
{"name":"Lafayette (LAFY)","code":"LF","address":"3601 Deer Hill Road, Lafayette CA 94549","entries":"3481","exits":"3616","coordinates":[-122.706,37.893394]},
{"name":"Lafayette (LAFY)","code":"LF","address":"3601 Deer Hill Road, Lafayette CA 94549","entries":"3481","exits":"3616","coordinates":[-122.707,37.893394]},
{"name":"Lafayette (LAFY)","code":"LF","address":"3601 Deer Hill Road, Lafayette CA 94549","entries":"3481","exits":"3616","coordinates":[-122.708,37.893394]},
{"name":"Lafayette (LAFY)","code":"LF","address":"3601 Deer Hill Road, Lafayette CA 94549","entries":"3481","exits":"3616","coordinates":[-122.709,37.893394]},
{"name":"Lafayette (LAFY)","code":"LF","address":"3601 Deer Hill Road, Lafayette CA 94549","entries":"3481","exits":"3616","coordinates":[-122.710,37.893394]},
{"name":"Lafayette (LAFY)","code":"LF","address":"3601 Deer Hill Road, Lafayette CA 94549","entries":"3481","exits":"3616","coordinates":[-122.711,37.893394]},
{"name":"Lafayette (LAFY)","code":"LF","address":"3601 Deer Hill Road, Lafayette CA 94549","entries":"3481","exits":"3616","coordinates":[-122.712,37.893394]},
{"name":"Lafayette (LAFY)","code":"LF","address":"3601 Deer Hill Road, Lafayette CA 94549","entries":"3481","exits":"3616","coordinates":[-122.713,37.893394]},
{"name":"Lafayette (LAFY)","code":"LF","address":"3601 Deer Hill Road, Lafayette CA 94549","entries":"3481","exits":"3616","coordinates":[-122.714,37.893394]},
{"name":"Lafayette (LAFY)","code":"LF","address":"3601 Deer Hill Road, Lafayette CA 94549","entries":"3481","exits":"3616","coordinates":[-122.715,37.893394]},
{"name":"Lafayette (LAFY)","code":"LF","address":"3601 Deer Hill Road, Lafayette CA 94549","entries":"3481","exits":"3616","coordinates":[-122.716,37.893394]},
{"name":"Lafayette (LAFY)","code":"LF","address":"3601 Deer Hill Road, Lafayette CA 94549","entries":"3481","exits":"3616","coordinates":[-122.717,37.893394]},
{"name":"Lafayette (LAFY)","code":"LF","address":"3601 Deer Hill Road, Lafayette CA 94549","entries":"3481","exits":"3616","coordinates":[-122.718,37.893394]},
{"name":"Lafayette (LAFY)","code":"LF","address":"3601 Deer Hill Road, Lafayette CA 94549","entries":"3481","exits":"3616","coordinates":[-122.719,37.893394]},
{"name":"Lafayette (LAFY)","code":"LF","address":"3601 Deer Hill Road, Lafayette CA 94549","entries":"3481","exits":"3616","coordinates":[-122.720,37.893394]},
{"name":"Lafayette (LAFY)","code":"LF","address":"3601 Deer Hill Road, Lafayette CA 94549","entries":"3481","exits":"3616","coordinates":[-122.721,37.893394]},
{"name":"Lafayette (LAFY)","code":"LF","address":"3601 Deer Hill Road, Lafayette CA 94549","entries":"3481","exits":"3616","coordinates":[-122.722,37.893394]},
{"name":"Lafayette (LAFY)","code":"LF","address":"3601 Deer Hill Road, Lafayette CA 94549","entries":"3481","exits":"3616","coordinates":[-122.723,37.893394]},
{"name":"Lafayette (LAFY)","code":"LF","address":"3601 Deer Hill Road, Lafayette CA 94549","entries":"3481","exits":"3616","coordinates":[-122.724,37.893394]},
{"name":"Lafayette (LAFY)","code":"LF","address":"3601 Deer Hill Road, Lafayette CA 94549","entries":"3481","exits":"3616","coordinates":[-122.725,37.893394]},
{"name":"Lafayette (LAFY)","code":"LF","address":"3601 Deer Hill Road, Lafayette CA 94549","entries":"3481","exits":"3616","coordinates":[-122.726,37.893394]},
{"name":"Lafayette (LAFY)","code":"LF","address":"3601 Deer Hill Road, Lafayette CA 94549","entries":"3481","exits":"3616","coordinates":[-122.727,37.893394]},
{"name":"Lafayette (LAFY)","code":"LF","address":"3601 Deer Hill Road, Lafayette CA 94549","entries":"3481","exits":"3616","coordinates":[-122.728,37.893394]},
{"name":"Lafayette (LAFY)","code":"LF","address":"3601 Deer Hill Road, Lafayette CA 94549","entries":"3481","exits":"3616","coordinates":[-122.729,37.893394]},
{"name":"Lafayette (LAFY)","code":"LF","address":"3601 Deer Hill Road, Lafayette CA 94549","entries":"3481","exits":"3616","coordinates":[-122.730,37.893394]},
{"name":"Lafayette (LAFY)","code":"LF","address":"3601 Deer Hill Road, Lafayette CA 94549","entries":"3481","exits":"3616","coordinates":[-122.731,37.893394]},
{"name":"Lafayette (LAFY)","code":"LF","address":"3601 Deer Hill Road, Lafayette CA 94549","entries":"3481","exits":"3616","coordinates":[-122.732,37.893394]},
{"name":"Lafayette (LAFY)","code":"LF","address":"3601 Deer Hill Road, Lafayette CA 94549","entries":"3481","exits":"3616","coordinates":[-122.733,37.893394]},
{"name":"Lafayette (LAFY)","code":"LF","address":"3601 Deer Hill Road, Lafayette CA 94549","entries":"3481","exits":"3616","coordinates":[-122.734,37.893394]},
{"name":"Lafayette (LAFY)","code":"LF","address":"3601 Deer Hill Road, Lafayette CA 94549","entries":"3481","exits":"3616","coordinates":[-122.735,37.893394]},
{"name":"Lafayette (LAFY)","code":"LF","address":"3601 Deer Hill Road, Lafayette CA 94549","entries":"3481","exits":"3616","coordinates":[-122.736,37.893394]},
{"name":"Lafayette (LAFY)","code":"LF","address":"3601 Deer Hill Road, Lafayette CA 94549","entries":"3481","exits":"3616","coordinates":[-122.737,37.893394]},
{"name":"Lafayette (LAFY)","code":"LF","address":"3601 Deer Hill Road, Lafayette CA 94549","entries":"3481","exits":"3616","coordinates":[-122.738,37.893394]},
{"name":"Lafayette (LAFY)","code":"LF","address":"3601 Deer Hill Road, Lafayette CA 94549","entries":"3481","exits":"3616","coordinates":[-122.739,37.893394]},
{"name":"Lafayette (LAFY)","code":"LF","address":"3601 Deer Hill Road, Lafayette CA 94549","entries":"3481","exits":"3616","coordinates":[-122.740,37.893394]},
{"name":"Lafayette (LAFY)","code":"LF","address":"3601 Deer Hill Road, Lafayette CA 94549","entries":"3481","exits":"3616","coordinates":[-122.741,37.893394]},
{"name":"Lafayette (LAFY)","code":"LF","address":"3601 Deer Hill Road, Lafayette CA 94549","entries":"3481","exits":"3616","coordinates":[-122.742,37.893394]},
{"name":"Lafayette (LAFY)","code":"LF","address":"3601 Deer Hill Road, Lafayette CA 94549","entries":"3481","exits":"3616","coordinates":[-122.743,37.893394]},
{"name":"Lafayette (LAFY)","code":"LF","address":"3601 Deer Hill Road, Lafayette CA 94549","entries":"3481","exits":"3616","coordinates":[-122.744,37.893394]},
{"name":"Lafayette (LAFY)","code":"LF","address":"3601 Deer Hill Road, Lafayette CA 94549","entries":"3481","exits":"3616","coordinates":[-122.745,37.893394]},
{"name":"Lafayette (LAFY)","code":"LF","address":"3601 Deer Hill Road, Lafayette CA 94549","entries":"3481","exits":"3616","coordinates":[-122.746,37.893394]},
{"name":"Lafayette (LAFY)","code":"LF","address":"3601 Deer Hill Road, Lafayette CA 94549","entries":"3481","exits":"3616","coordinates":[-122.747,37.893394]},
{"name":"Lafayette (LAFY)","code":"LF","address":"3601 Deer Hill Road, Lafayette CA 94549","entries":"3481","exits":"3616","coordinates":[-122.748,37.893394]},
{"name":"Lafayette (LAFY)","code":"LF","address":"3601 Deer Hill Road, Lafayette CA 94549","entries":"3481","exits":"3616","coordinates":[-122.749,37.893394]},
{"name":"Lafayette (LAFY)","code":"LF","address":"3601 Deer Hill Road, Lafayette CA 94549","entries":"3481","exits":"3616","coordinates":[-122.750,37.893394]},
{"name":"Lafayette (LAFY)","code":"LF","address":"3601 Deer Hill Road, Lafayette CA 94549","entries":"3481","exits":"3616","coordinates":[-122.751,37.893394]},
{"name":"Lafayette (LAFY)","code":"LF","address":"3601 Deer Hill Road, Lafayette CA 94549","entries":"3481","exits":"3616","coordinates":[-122.752,37.893394]},
{"name":"Lafayette (LAFY)","code":"LF","address":"3601 Deer Hill Road, Lafayette CA 94549","entries":"3481","exits":"3616","coordinates":[-122.753,37.893394]},
{"name":"Lafayette (LAFY)","code":"LF","address":"3601 Deer Hill Road, Lafayette CA 94549","entries":"3481","exits":"3616","coordinates":[-122.754,37.893394]},
{"name":"Lafayette (LAFY)","code":"LF","address":"3601 Deer Hill Road, Lafayette CA 94549","entries":"3481","exits":"3616","coordinates":[-122.755,37.893394]},
{"name":"Lafayette (LAFY)","code":"LF","address":"3601 Deer Hill Road, Lafayette CA 94549","entries":"3481","exits":"3616","coordinates":[-122.756,37.893394]},
{"name":"Lafayette (LAFY)","code":"LF","address":"3601 Deer Hill Road, Lafayette CA 94549","entries":"3481","exits":"3616","coordinates":[-122.757,37.893394]},
{"name":"Lafayette (LAFY)","code":"LF","address":"3601 Deer Hill Road, Lafayette CA 94549","entries":"3481","exits":"3616","coordinates":[-122.758,37.893394]},
{"name":"Lafayette (LAFY)","code":"LF","address":"3601 Deer Hill Road, Lafayette CA 94549","entries":"3481","exits":"3616","coordinates":[-122.759,37.893394]},
{"name":"Lafayette (LAFY)","code":"LF","address":"3601 Deer Hill Road, Lafayette CA 94549","entries":"3481","exits":"3616","coordinates":[-122.760,37.893394]},
{"name":"Lafayette (LAFY)","code":"LF","address":"3601 Deer Hill Road, Lafayette CA 94549","entries":"3481","exits":"3616","coordinates":[-122.761,37.893394]},
{"name":"Lafayette (LAFY)","code":"LF","address":"3601 Deer Hill Road, Lafayette CA 94549","entries":"3481","exits":"3616","coordinates":[-122.762,37.893394]},
{"name":"Lafayette (LAFY)","code":"LF","address":"3601 Deer Hill Road, Lafayette CA 94549","entries":"3481","exits":"3616","coordinates":[-122.763,37.893394]},
{"name":"Lafayette (LAFY)","code":"LF","address":"3601 Deer Hill Road, Lafayette CA 94549","entries":"3481","exits":"3616","coordinates":[-122.764,37.893394]},
{"name":"Lafayette (LAFY)","code":"LF","address":"3601 Deer Hill Road, Lafayette CA 94549","entries":"3481","exits":"3616","coordinates":[-122.765,37.893394]},
{"name":"Lafayette (LAFY)","code":"LF","address":"3601 Deer Hill Road, Lafayette CA 94549","entries":"3481","exits":"3616","coordinates":[-122.766,37.893394]},
{"name":"Lafayette (LAFY)","code":"LF","address":"3601 Deer Hill Road, Lafayette CA 94549","entries":"3481","exits":"3616","coordinates":[-122.767,37.893394]},
{"name":"Lafayette (LAFY)","code":"LF","address":"3601 Deer Hill Road, Lafayette CA 94549","entries":"3481","exits":"3616","coordinates":[-122.768,37.893394]},
{"name":"Lafayette (LAFY)","code":"LF","address":"3601 Deer Hill Road, Lafayette CA 94549","entries":"3481","exits":"3616","coordinates":[-122.769,37.893394]},
{"name":"Lafayette (LAFY)","code":"LF","address":"3601 Deer Hill Road, Lafayette CA 94549","entries":"3481","exits":"3616","coordinates":[-122.770,37.893394]},
{"name":"Lafayette (LAFY)","code":"LF","address":"3601 Deer Hill Road, Lafayette CA 94549","entries":"3481","exits":"3616","coordinates":[-122.771,37.893394]},
{"name":"Lafayette (LAFY)","code":"LF","address":"3601 Deer Hill Road, Lafayette CA 94549","entries":"3481","exits":"3616","coordinates":[-122.772,37.893394]},
{"name":"Lafayette (LAFY)","code":"LF","address":"3601 Deer Hill Road, Lafayette CA 94549","entries":"3481","exits":"3616","coordinates":[-122.773,37.893394]},
{"name":"Lafayette (LAFY)","code":"LF","address":"3601 Deer Hill Road, Lafayette CA 94549","entries":"3481","exits":"3616","coordinates":[-122.774,37.893394]},
{"name":"Lafayette (LAFY)","code":"LF","address":"3601 Deer Hill Road, Lafayette CA 94549","entries":"3481","exits":"3616","coordinates":[-122.775,37.893394]},
{"name":"Lafayette (LAFY)","code":"LF","address":"3601 Deer Hill Road, Lafayette CA 94549","entries":"3481","exits":"3616","coordinates":[-122.776,37.893394]},
{"name":"Lafayette (LAFY)","code":"LF","address":"3601 Deer Hill Road, Lafayette CA 94549","entries":"3481","exits":"3616","coordinates":[-122.777,37.893394]},
{"name":"Lafayette (LAFY)","code":"LF","address":"3601 Deer Hill Road, Lafayette CA 94549","entries":"3481","exits":"3616","coordinates":[-122.778,37.893394]},
{"name":"Lafayette (LAFY)","code":"LF","address":"3601 Deer Hill Road, Lafayette CA 94549","entries":"3481","exits":"3616","coordinates":[-122.779,37.893394]},
{"name":"Lafayette (LAFY)","code":"LF","address":"3601 Deer Hill Road, Lafayette CA 94549","entries":"3481","exits":"3616","coordinates":[-122.780,37.893394]},
{"name":"Lafayette (LAFY)","code":"LF","address":"3601 Deer Hill Road, Lafayette CA 94549","entries":"3481","exits":"3616","coordinates":[-122.781,37.893394]},
{"name":"Lafayette (LAFY)","code":"LF","address":"3601 Deer Hill Road, Lafayette CA 94549","entries":"3481","exits":"3616","coordinates":[-122.782,37.893394]},
{"name":"Lafayette (LAFY)","code":"LF","address":"3601 Deer Hill Road, Lafayette CA 94549","entries":"3481","exits":"3616","coordinates":[-122.783,37.893394]},
{"name":"Lafayette (LAFY)","code":"LF","address":"3601 Deer Hill Road, Lafayette CA 94549","entries":"3481","exits":"3616","coordinates":[-122.784,37.893394]},
{"name":"Lafayette (LAFY)","code":"LF","address":"3601 Deer Hill Road, Lafayette CA 94549","entries":"3481","exits":"3616","coordinates":[-122.785,37.893394]},
{"name":"Lafayette (LAFY)","code":"LF","address":"3601 Deer Hill Road, Lafayette CA 94549","entries":"3481","exits":"3616","coordinates":[-122.786,37.893394]},
{"name":"Lafayette (LAFY)","code":"LF","address":"3601 Deer Hill Road, Lafayette CA 94549","entries":"3481","exits":"3616","coordinates":[-122.787,37.893394]},
{"name":"Lafayette (LAFY)","code":"LF","address":"3601 Deer Hill Road, Lafayette CA 94549","entries":"3481","exits":"3616","coordinates":[-122.788,37.893394]},
{"name":"Lafayette (LAFY)","code":"LF","address":"3601 Deer Hill Road, Lafayette CA 94549","entries":"3481","exits":"3616","coordinates":[-122.789,37.893394]},
{"name":"Lafayette (LAFY)","code":"LF","address":"3601 Deer Hill Road, Lafayette CA 94549","entries":"3481","exits":"3616","coordinates":[-122.790,37.893394]},
{"name":"Lafayette (LAFY)","code":"LF","address":"3601 Deer Hill Road, Lafayette CA 94549","entries":"3481","exits":"3616","coordinates":[-122.791,37.893394]},
{"name":"Lafayette (LAFY)","code":"LF","address":"3601 Deer Hill Road, Lafayette CA 94549","entries":"3481","exits":"3616","coordinates":[-122.792,37.893394]},
{"name":"Lafayette (LAFY)","code":"LF","address":"3601 Deer Hill Road, Lafayette CA 94549","entries":"3481","exits":"3616","coordinates":[-122.793,37.893394]},
{"name":"Lafayette (LAFY)","code":"LF","address":"3601 Deer Hill Road, Lafayette CA 94549","entries":"3481","exits":"3616","coordinates":[-122.794,37.893394]},
{"name":"Lafayette (LAFY)","code":"LF","address":"3601 Deer Hill Road, Lafayette CA 94549","entries":"3481","exits":"3616","coordinates":[-122.795,37.893394]},
{"name":"Lafayette (LAFY)","code":"LF","address":"3601 Deer Hill Road, Lafayette CA 94549","entries":"3481","exits":"3616","coordinates":[-122.796,37.893394]},
{"name":"Lafayette (LAFY)","code":"LF","address":"3601 Deer Hill Road, Lafayette CA 94549","entries":"3481","exits":"3616","coordinates":[-122.797,37.893394]},
{"name":"Lafayette (LAFY)","code":"LF","address":"3601 Deer Hill Road, Lafayette CA 94549","entries":"3481","exits":"3616","coordinates":[-122.798,37.893394]},
{"name":"Lafayette (LAFY)","code":"LF","address":"3601 Deer Hill Road, Lafayette CA 94549","entries":"3481","exits":"3616","coordinates":[-122.799,37.893394]},
{"name":"Lafayette (LAFY)","code":"LF","address":"3601 Deer Hill Road, Lafayette CA 94549","entries":"3481","exits":"3616","coordinates":[-122.800,37.893394]},
{"name":"Lafayette (LAFY)","code":"LF","address":"3601 Deer Hill Road, Lafayette CA 94549","entries":"3481","exits":"3616","coordinates":[-122.801,37.893394]},
{"name":"Lafayette (LAFY)","code":"LF","address":"3601 Deer Hill Road, Lafayette CA 94549","entries":"3481","exits":"3616","coordinates":[-122.802,37.893394]},
{"name":"Lafayette (LAFY)","code":"LF","address":"3601 Deer Hill Road, Lafayette CA 94549","entries":"3481","exits":"3616","coordinates":[-122.803,37.893394]},
{"name":"Lafayette (LAFY)","code":"LF","address":"3601 Deer Hill Road, Lafayette CA 94549","entries":"3481","exits":"3616","coordinates":[-122.804,37.893394]},
{"name":"Lafayette (LAFY)","code":"LF","address":"3601 Deer Hill Road, Lafayette CA 94549","entries":"3481","exits":"3616","coordinates":[-122.805,37.893394]},
{"name":"Lafayette (LAFY)","code":"LF","address":"3601 Deer Hill Road, Lafayette CA 94549","entries":"3481","exits":"3616","coordinates":[-122.806,37.893394]},
{"name":"Lafayette (LAFY)","code":"LF","address":"3601 Deer Hill Road, Lafayette CA 94549","entries":"3481","exits":"3616","coordinates":[-122.807,37.893394]},
{"name":"Lafayette (LAFY)","code":"LF","address":"3601 Deer Hill Road, Lafayette CA 94549","entries":"3481","exits":"3616","coordinates":[-122.808,37.893394]},
{"name":"Lafayette (LAFY)","code":"LF","address":"3601 Deer Hill Road, Lafayette CA 94549","entries":"3481","exits":"3616","coordinates":[-122.809,37.893394]},
{"name":"Lafayette (LAFY)","code":"LF","address":"3601 Deer Hill Road, Lafayette CA 94549","entries":"3481","exits":"3616","coordinates":[-122.810,37.893394]},
{"name":"Lafayette (LAFY)","code":"LF","address":"3601 Deer Hill Road, Lafayette CA 94549","entries":"3481","exits":"3616","coordinates":[-122.811,37.893394]},
{"name":"Lafayette (LAFY)","code":"LF","address":"3601 Deer Hill Road, Lafayette CA 94549","entries":"3481","exits":"3616","coordinates":[-122.812,37.893394]},
{"name":"Lafayette (LAFY)","code":"LF","address":"3601 Deer Hill Road, Lafayette CA 94549","entries":"3481","exits":"3616","coordinates":[-122.813,37.893394]},
{"name":"Lafayette (LAFY)","code":"LF","address":"3601 Deer Hill Road, Lafayette CA 94549","entries":"3481","exits":"3616","coordinates":[-122.814,37.893394]},
{"name":"Lafayette (LAFY)","code":"LF","address":"3601 Deer Hill Road, Lafayette CA 94549","entries":"3481","exits":"3616","coordinates":[-122.815,37.893394]},
{"name":"Lafayette (LAFY)","code":"LF","address":"3601 Deer Hill Road, Lafayette CA 94549","entries":"3481","exits":"3616","coordinates":[-122.816,37.893394]},
{"name":"Lafayette (LAFY)","code":"LF","address":"3601 Deer Hill Road, Lafayette CA 94549","entries":"3481","exits":"3616","coordinates":[-122.817,37.893394]},
{"name":"Lafayette (LAFY)","code":"LF","address":"3601 Deer Hill Road, Lafayette CA 94549","entries":"3481","exits":"3616","coordinates":[-122.818,37.893394]},
{"name":"Lafayette (LAFY)","code":"LF","address":"3601 Deer Hill Road, Lafayette CA 94549","entries":"3481","exits":"3616","coordinates":[-122.819,37.893394]},
{"name":"Lafayette (LAFY)","code":"LF","address":"3601 Deer Hill Road, Lafayette CA 94549","entries":"3481","exits":"3616","coordinates":[-122.820,37.893394]},
{"name":"Lafayette (LAFY)","code":"LF","address":"3601 Deer Hill Road, Lafayette CA 94549","entries":"3481","exits":"3616","coordinates":[-122.821,37.893394]},
{"name":"Lafayette (LAFY)","code":"LF","address":"3601 Deer Hill Road, Lafayette CA 94549","entries":"3481","exits":"3616","coordinates":[-122.822,37.893394]},
{"name":"Lafayette (LAFY)","code":"LF","address":"3601 Deer Hill Road, Lafayette CA 94549","entries":"3481","exits":"3616","coordinates":[-122.823,37.893394]},
{"name":"Lafayette (LAFY)","code":"LF","address":"3601 Deer Hill Road, Lafayette CA 94549","entries":"3481","exits":"3616","coordinates":[-122.824,37.893394]},
{"name":"Lafayette (LAFY)","code":"LF","address":"3601 Deer Hill Road, Lafayette CA 94549","entries":"3481","exits":"3616","coordinates":[-122.825,37.893394]},
{"name":"Lafayette (LAFY)","code":"LF","address":"3601 Deer Hill Road, Lafayette CA 94549","entries":"3481","exits":"3616","coordinates":[-122.826,37.893394]},
{"name":"Lafayette (LAFY)","code":"LF","address":"3601 Deer Hill Road, Lafayette CA 94549","entries":"3481","exits":"3616","coordinates":[-122.827,37.893394]},
{"name":"Lafayette (LAFY)","code":"LF","address":"3601 Deer Hill Road, Lafayette CA 94549","entries":"3481","exits":"3616","coordinates":[-122.828,37.893394]},
{"name":"Lafayette (LAFY)","code":"LF","address":"3601 Deer Hill Road, Lafayette CA 94549","entries":"3481","exits":"3616","coordinates":[-122.829,37.893394]},
{"name":"Lafayette (LAFY)","code":"LF","address":"3601 Deer Hill Road, Lafayette CA 94549","entries":"3481","exits":"3616","coordinates":[-122.830,37.893394]},
{"name":"Lafayette (LAFY)","code":"LF","address":"3601 Deer Hill Road, Lafayette CA 94549","entries":"3481","exits":"3616","coordinates":[-122.831,37.893394]},
{"name":"Lafayette (LAFY)","code":"LF","address":"3601 Deer Hill Road, Lafayette CA 94549","entries":"3481","exits":"3616","coordinates":[-122.832,37.893394]},
{"name":"Lafayette (LAFY)","code":"LF","address":"3601 Deer Hill Road, Lafayette CA 94549","entries":"3481","exits":"3616","coordinates":[-122.833,37.893394]},
{"name":"Lafayette (LAFY)","code":"LF","address":"3601 Deer Hill Road, Lafayette CA 94549","entries":"3481","exits":"3616","coordinates":[-122.834,37.893394]},
{"name":"Lafayette (LAFY)","code":"LF","address":"3601 Deer Hill Road, Lafayette CA 94549","entries":"3481","exits":"3616","coordinates":[-122.835,37.893394]},
{"name":"Lafayette (LAFY)","code":"LF","address":"3601 Deer Hill Road, Lafayette CA 94549","entries":"3481","exits":"3616","coordinates":[-122.836,37.893394]},
{"name":"Lafayette (LAFY)","code":"LF","address":"3601 Deer Hill Road, Lafayette CA 94549","entries":"3481","exits":"3616","coordinates":[-122.837,37.893394]},
{"name":"Lafayette (LAFY)","code":"LF","address":"3601 Deer Hill Road, Lafayette CA 94549","entries":"3481","exits":"3616","coordinates":[-122.838,37.893394]},
{"name":"Lafayette (LAFY)","code":"LF","address":"3601 Deer Hill Road, Lafayette CA 94549","entries":"3481","exits":"3616","coordinates":[-122.839,37.893394]},
{"name":"Lafayette (LAFY)","code":"LF","address":"3601 Deer Hill Road, Lafayette CA 94549","entries":"3481","exits":"3616","coordinates":[-122.840,37.893394]},
{"name":"Lafayette (LAFY)","code":"LF","address":"3601 Deer Hill Road, Lafayette CA 94549","entries":"3481","exits":"3616","coordinates":[-122.841,37.893394]},
{"name":"Lafayette (LAFY)","code":"LF","address":"3601 Deer Hill Road, Lafayette CA 94549","entries":"3481","exits":"3616","coordinates":[-122.842,37.893394]},
{"name":"Lafayette (LAFY)","code":"LF","address":"3601 Deer Hill Road, Lafayette CA 94549","entries":"3481","exits":"3616","coordinates":[-122.843,37.893394]},
{"name":"Lafayette (LAFY)","code":"LF","address":"3601 Deer Hill Road, Lafayette CA 94549","entries":"3481","exits":"3616","coordinates":[-122.844,37.893394]},
{"name":"Lafayette (LAFY)","code":"LF","address":"3601 Deer Hill Road, Lafayette CA 94549","entries":"3481","exits":"3616","coordinates":[-122.845,37.893394]},
{"name":"Lafayette (LAFY)","code":"LF","address":"3601 Deer Hill Road, Lafayette CA 94549","entries":"3481","exits":"3616","coordinates":[-122.846,37.893394]},
{"name":"Lafayette (LAFY)","code":"LF","address":"3601 Deer Hill Road, Lafayette CA 94549","entries":"3481","exits":"3616","coordinates":[-122.847,37.893394]},
{"name":"Lafayette (LAFY)","code":"LF","address":"3601 Deer Hill Road, Lafayette CA 94549","entries":"3481","exits":"3616","coordinates":[-122.848,37.893394]},
{"name":"Lafayette (LAFY)","code":"LF","address":"3601 Deer Hill Road, Lafayette CA 94549","entries":"3481","exits":"3616","coordinates":[-122.849,37.893394]},
{"name":"Lafayette (LAFY)","code":"LF","address":"3601 Deer Hill Road, Lafayette CA 94549","entries":"3481","exits":"3616","coordinates":[-122.850,37.893394]},
{"name":"Lafayette (LAFY)","code":"LF","address":"3601 Deer Hill Road, Lafayette CA 94549","entries":"3481","exits":"3616","coordinates":[-122.851,37.893394]},
{"name":"Lafayette (LAFY)","code":"LF","address":"3601 Deer Hill Road, Lafayette CA 94549","entries":"3481","exits":"3616","coordinates":[-122.852,37.893394]},
{"name":"Lafayette (LAFY)","code":"LF","address":"3601 Deer Hill Road, Lafayette CA 94549","entries":"3481","exits":"3616","coordinates":[-122.853,37.893394]},
{"name":"Lafayette (LAFY)","code":"LF","address":"3601 Deer Hill Road, Lafayette CA 94549","entries":"3481","exits":"3616","coordinates":[-122.854,37.893394]},
{"name":"Lafayette (LAFY)","code":"LF","address":"3601 Deer Hill Road, Lafayette CA 94549","entries":"3481","exits":"3616","coordinates":[-122.855,37.893394]},
{"name":"Lafayette (LAFY)","code":"LF","address":"3601 Deer Hill Road, Lafayette CA 94549","entries":"3481","exits":"3616","coordinates":[-122.856,37.893394]},
{"name":"Lafayette (LAFY)","code":"LF","address":"3601 Deer Hill Road, Lafayette CA 94549","entries":"3481","exits":"3616","coordinates":[-122.857,37.893394]},
{"name":"Lafayette (LAFY)","code":"LF","address":"3601 Deer Hill Road, Lafayette CA 94549","entries":"3481","exits":"3616","coordinates":[-122.858,37.893394]},
{"name":"Lafayette (LAFY)","code":"LF","address":"3601 Deer Hill Road, Lafayette CA 94549","entries":"3481","exits":"3616","coordinates":[-122.859,37.893394]},
{"name":"Lafayette (LAFY)","code":"LF","address":"3601 Deer Hill Road, Lafayette CA 94549","entries":"3481","exits":"3616","coordinates":[-122.860,37.893394]},
{"name":"Lafayette (LAFY)","code":"LF","address":"3601 Deer Hill Road, Lafayette CA 94549","entries":"3481","exits":"3616","coordinates":[-122.861,37.893394]},
{"name":"Lafayette (LAFY)","code":"LF","address":"3601 Deer Hill Road, Lafayette CA 94549","entries":"3481","exits":"3616","coordinates":[-122.862,37.893394]},
{"name":"Lafayette (LAFY)","code":"LF","address":"3601 Deer Hill Road, Lafayette CA 94549","entries":"3481","exits":"3616","coordinates":[-122.863,37.893394]},
{"name":"Lafayette (LAFY)","code":"LF","address":"3601 Deer Hill Road, Lafayette CA 94549","entries":"3481","exits":"3616","coordinates":[-122.864,37.893394]},
{"name":"Lafayette (LAFY)","code":"LF","address":"3601 Deer Hill Road, Lafayette CA 94549","entries":"3481","exits":"3616","coordinates":[-122.865,37.893394]},
{"name":"Lafayette (LAFY)","code":"LF","address":"3601 Deer Hill Road, Lafayette CA 94549","entries":"3481","exits":"3616","coordinates":[-122.866,37.893394]},
{"name":"Lafayette (LAFY)","code":"LF","address":"3601 Deer Hill Road, Lafayette CA 94549","entries":"3481","exits":"3616","coordinates":[-122.867,37.893394]},
{"name":"Lafayette (LAFY)","code":"LF","address":"3601 Deer Hill Road, Lafayette CA 94549","entries":"3481","exits":"3616","coordinates":[-122.868,37.893394]},
{"name":"Lafayette (LAFY)","code":"LF","address":"3601 Deer Hill Road, Lafayette CA 94549","entries":"3481","exits":"3616","coordinates":[-122.869,37.893394]},
{"name":"Lafayette (LAFY)","code":"LF","address":"3601 Deer Hill Road, Lafayette CA 94549","entries":"3481","exits":"3616","coordinates":[-122.870,37.893394]},
{"name":"Lafayette (LAFY)","code":"LF","address":"3601 Deer Hill Road, Lafayette CA 94549","entries":"3481","exits":"3616","coordinates":[-122.871,37.893394]},
{"name":"Lafayette (LAFY)","code":"LF","address":"3601 Deer Hill Road, Lafayette CA 94549","entries":"3481","exits":"3616","coordinates":[-122.872,37.893394]},
{"name":"Lafayette (LAFY)","code":"LF","address":"3601 Deer Hill Road, Lafayette CA 94549","entries":"3481","exits":"3616","coordinates":[-122.873,37.893394]},
{"name":"Lafayette (LAFY)","code":"LF","address":"3601 Deer Hill Road, Lafayette CA 94549","entries":"3481","exits":"3616","coordinates":[-122.874,37.893394]},
{"name":"Lafayette (LAFY)","code":"LF","address":"3601 Deer Hill Road, Lafayette CA 94549","entries":"3481","exits":"3616","coordinates":[-122.875,37.893394]},
{"name":"Lafayette (LAFY)","code":"LF","address":"3601 Deer Hill Road, Lafayette CA 94549","entries":"3481","exits":"3616","coordinates":[-122.876,37.893394]},
{"name":"Lafayette (LAFY)","code":"LF","address":"3601 Deer Hill Road, Lafayette CA 94549","entries":"3481","exits":"3616","coordinates":[-122.877,37.893394]},
{"name":"Lafayette (LAFY)","code":"LF","address":"3601 Deer Hill Road, Lafayette CA 94549","entries":"3481","exits":"3616","coordinates":[-122.878,37.893394]},
{"name":"Lafayette (LAFY)","code":"LF","address":"3601 Deer Hill Road, Lafayette CA 94549","entries":"3481","exits":"3616","coordinates":[-122.879,37.893394]},
{"name":"Lafayette (LAFY)","code":"LF","address":"3601 Deer Hill Road, Lafayette CA 94549","entries":"3481","exits":"3616","coordinates":[-122.880,37.893394]},
{"name":"Lafayette (LAFY)","code":"LF","address":"3601 Deer Hill Road, Lafayette CA 94549","entries":"3481","exits":"3616","coordinates":[-122.881,37.893394]},
{"name":"Lafayette (LAFY)","code":"LF","address":"3601 Deer Hill Road, Lafayette CA 94549","entries":"3481","exits":"3616","coordinates":[-122.882,37.893394]},
{"name":"Lafayette (LAFY)","code":"LF","address":"3601 Deer Hill Road, Lafayette CA 94549","entries":"3481","exits":"3616","coordinates":[-122.883,37.893394]},
{"name":"Lafayette (LAFY)","code":"LF","address":"3601 Deer Hill Road, Lafayette CA 94549","entries":"3481","exits":"3616","coordinates":[-122.884,37.893394]},
{"name":"Lafayette (LAFY)","code":"LF","address":"3601 Deer Hill Road, Lafayette CA 94549","entries":"3481","exits":"3616","coordinates":[-122.885,37.893394]},
{"name":"Lafayette (LAFY)","code":"LF","address":"3601 Deer Hill Road, Lafayette CA 94549","entries":"3481","exits":"3616","coordinates":[-122.886,37.893394]},
{"name":"Lafayette (LAFY)","code":"LF","address":"3601 Deer Hill Road, Lafayette CA 94549","entries":"3481","exits":"3616","coordinates":[-122.887,37.893394]},
{"name":"Lafayette (LAFY)","code":"LF","address":"3601 Deer Hill Road, Lafayette CA 94549","entries":"3481","exits":"3616","coordinates":[-122.888,37.893394]},
{"name":"Lafayette (LAFY)","code":"LF","address":"3601 Deer Hill Road, Lafayette CA 94549","entries":"3481","exits":"3616","coordinates":[-122.889,37.893394]},
{"name":"Lafayette (LAFY)","code":"LF","address":"3601 Deer Hill Road, Lafayette CA 94549","entries":"3481","exits":"3616","coordinates":[-122.890,37.893394]},
{"name":"Lafayette (LAFY)","code":"LF","address":"3601 Deer Hill Road, Lafayette CA 94549","entries":"3481","exits":"3616","coordinates":[-122.891,37.893394]},
{"name":"Lafayette (LAFY)","code":"LF","address":"3601 Deer Hill Road, Lafayette CA 94549","entries":"3481","exits":"3616","coordinates":[-122.892,37.893394]},
{"name":"Lafayette (LAFY)","code":"LF","address":"3601 Deer Hill Road, Lafayette CA 94549","entries":"3481","exits":"3616","coordinates":[-122.893,37.893394]},
{"name":"Lafayette (LAFY)","code":"LF","address":"3601 Deer Hill Road, Lafayette CA 94549","entries":"3481","exits":"3616","coordinates":[-122.894,37.893394]},
{"name":"Lafayette (LAFY)","code":"LF","address":"3601 Deer Hill Road, Lafayette CA 94549","entries":"3481","exits":"3616","coordinates":[-122.895,37.893394]},
{"name":"Lafayette (LAFY)","code":"LF","address":"3601 Deer Hill Road, Lafayette CA 94549","entries":"3481","exits":"3616","coordinates":[-122.896,37.893394]},
{"name":"Lafayette (LAFY)","code":"LF","address":"3601 Deer Hill Road, Lafayette CA 94549","entries":"3481","exits":"3616","coordinates":[-122.897,37.893394]},
{"name":"Lafayette (LAFY)","code":"LF","address":"3601 Deer Hill Road, Lafayette CA 94549","entries":"3481","exits":"3616","coordinates":[-122.898,37.893394]},
{"name":"Lafayette (LAFY)","code":"LF","address":"3601 Deer Hill Road, Lafayette CA 94549","entries":"3481","exits":"3616","coordinates":[-122.899,37.893394]},
{"name":"Lafayette (LAFY)","code":"LF","address":"3601 Deer Hill Road, Lafayette CA 94549","entries":"3481","exits":"3616","coordinates":[-122.900,37.893394]},
{"name":"Lafayette (LAFY)","code":"LF","address":"3601 Deer Hill Road, Lafayette CA 94549","entries":"3481","exits":"3616","coordinates":[-122.901,37.893394]},
{"name":"Lafayette (LAFY)","code":"LF","address":"3601 Deer Hill Road, Lafayette CA 94549","entries":"3481","exits":"3616","coordinates":[-122.902,37.893394]},
{"name":"Lafayette (LAFY)","code":"LF","address":"3601 Deer Hill Road, Lafayette CA 94549","entries":"3481","exits":"3616","coordinates":[-122.903,37.893394]},
{"name":"Lafayette (LAFY)","code":"LF","address":"3601 Deer Hill Road, Lafayette CA 94549","entries":"3481","exits":"3616","coordinates":[-122.904,37.893394]},
{"name":"Lafayette (LAFY)","code":"LF","address":"3601 Deer Hill Road, Lafayette CA 94549","entries":"3481","exits":"3616","coordinates":[-122.905,37.893394]},
{"name":"Lafayette (LAFY)","code":"LF","address":"3601 Deer Hill Road, Lafayette CA 94549","entries":"3481","exits":"3616","coordinates":[-122.906,37.893394]},
{"name":"Lafayette (LAFY)","code":"LF","address":"3601 Deer Hill Road, Lafayette CA 94549","entries":"3481","exits":"3616","coordinates":[-122.907,37.893394]},
{"name":"Lafayette (LAFY)","code":"LF","address":"3601 Deer Hill Road, Lafayette CA 94549","entries":"3481","exits":"3616","coordinates":[-122.908,37.893394]},
{"name":"Lafayette (LAFY)","code":"LF","address":"3601 Deer Hill Road, Lafayette CA 94549","entries":"3481","exits":"3616","coordinates":[-122.909,37.893394]},
{"name":"Lafayette (LAFY)","code":"LF","address":"3601 Deer Hill Road, Lafayette CA 94549","entries":"3481","exits":"3616","coordinates":[-122.910,37.893394]},
{"name":"Lafayette (LAFY)","code":"LF","address":"3601 Deer Hill Road, Lafayette CA 94549","entries":"3481","exits":"3616","coordinates":[-122.911,37.893394]},
{"name":"Lafayette (LAFY)","code":"LF","address":"3601 Deer Hill Road, Lafayette CA 94549","entries":"3481","exits":"3616","coordinates":[-122.912,37.893394]},
{"name":"Lafayette (LAFY)","code":"LF","address":"3601 Deer Hill Road, Lafayette CA 94549","entries":"3481","exits":"3616","coordinates":[-122.913,37.893394]},
{"name":"Lafayette (LAFY)","code":"LF","address":"3601 Deer Hill Road, Lafayette CA 94549","entries":"3481","exits":"3616","coordinates":[-122.914,37.893394]},
{"name":"Lafayette (LAFY)","code":"LF","address":"3601 Deer Hill Road, Lafayette CA 94549","entries":"3481","exits":"3616","coordinates":[-122.915,37.893394]},
{"name":"Lafayette (LAFY)","code":"LF","address":"3601 Deer Hill Road, Lafayette CA 94549","entries":"3481","exits":"3616","coordinates":[-122.916,37.893394]},
{"name":"Lafayette (LAFY)","code":"LF","address":"3601 Deer Hill Road, Lafayette CA 94549","entries":"3481","exits":"3616","coordinates":[-122.917,37.893394]},
{"name":"Lafayette (LAFY)","code":"LF","address":"3601 Deer Hill Road, Lafayette CA 94549","entries":"3481","exits":"3616","coordinates":[-122.918,37.893394]},
{"name":"Lafayette (LAFY)","code":"LF","address":"3601 Deer Hill Road, Lafayette CA 94549","entries":"3481","exits":"3616","coordinates":[-122.919,37.893394]},
{"name":"Lafayette (LAFY)","code":"LF","address":"3601 Deer Hill Road, Lafayette CA 94549","entries":"3481","exits":"3616","coordinates":[-122.920,37.893394]},
{"name":"Lafayette (LAFY)","code":"LF","address":"3601 Deer Hill Road, Lafayette CA 94549","entries":"3481","exits":"3616","coordinates":[-122.921,37.893394]},
{"name":"Lafayette (LAFY)","code":"LF","address":"3601 Deer Hill Road, Lafayette CA 94549","entries":"3481","exits":"3616","coordinates":[-122.922,37.893394]},
{"name":"Lafayette (LAFY)","code":"LF","address":"3601 Deer Hill Road, Lafayette CA 94549","entries":"3481","exits":"3616","coordinates":[-122.923,37.893394]},
{"name":"Lafayette (LAFY)","code":"LF","address":"3601 Deer Hill Road, Lafayette CA 94549","entries":"3481","exits":"3616","coordinates":[-122.924,37.893394]},
{"name":"Lafayette (LAFY)","code":"LF","address":"3601 Deer Hill Road, Lafayette CA 94549","entries":"3481","exits":"3616","coordinates":[-122.925,37.893394]},
{"name":"Lafayette (LAFY)","code":"LF","address":"3601 Deer Hill Road, Lafayette CA 94549","entries":"3481","exits":"3616","coordinates":[-122.926,37.893394]},
{"name":"Lafayette (LAFY)","code":"LF","address":"3601 Deer Hill Road, Lafayette CA 94549","entries":"3481","exits":"3616","coordinates":[-122.927,37.893394]},
{"name":"Lafayette (LAFY)","code":"LF","address":"3601 Deer Hill Road, Lafayette CA 94549","entries":"3481","exits":"3616","coordinates":[-122.928,37.893394]},
{"name":"Lafayette (LAFY)","code":"LF","address":"3601 Deer Hill Road, Lafayette CA 94549","entries":"3481","exits":"3616","coordinates":[-122.929,37.893394]},
{"name":"Lafayette (LAFY)","code":"LF","address":"3601 Deer Hill Road, Lafayette CA 94549","entries":"3481","exits":"3616","coordinates":[-122.930,37.893394]},
{"name":"Lafayette (LAFY)","code":"LF","address":"3601 Deer Hill Road, Lafayette CA 94549","entries":"3481","exits":"3616","coordinates":[-122.931,37.893394]},
{"name":"Lafayette (LAFY)","code":"LF","address":"3601 Deer Hill Road, Lafayette CA 94549","entries":"3481","exits":"3616","coordinates":[-122.932,37.893394]},
{"name":"Lafayette (LAFY)","code":"LF","address":"3601 Deer Hill Road, Lafayette CA 94549","entries":"3481","exits":"3616","coordinates":[-122.933,37.893394]},
{"name":"Lafayette (LAFY)","code":"LF","address":"3601 Deer Hill Road, Lafayette CA 94549","entries":"3481","exits":"3616","coordinates":[-122.934,37.893394]},
{"name":"Lafayette (LAFY)","code":"LF","address":"3601 Deer Hill Road, Lafayette CA 94549","entries":"3481","exits":"3616","coordinates":[-122.935,37.893394]},
{"name":"Lafayette (LAFY)","code":"LF","address":"3601 Deer Hill Road, Lafayette CA 94549","entries":"3481","exits":"3616","coordinates":[-122.936,37.893394]},
{"name":"Lafayette (LAFY)","code":"LF","address":"3601 Deer Hill Road, Lafayette CA 94549","entries":"3481","exits":"3616","coordinates":[-122.937,37.893394]},
{"name":"Lafayette (LAFY)","code":"LF","address":"3601 Deer Hill Road, Lafayette CA 94549","entries":"3481","exits":"3616","coordinates":[-122.938,37.893394]},
{"name":"Lafayette (LAFY)","code":"LF","address":"3601 Deer Hill Road, Lafayette CA 94549","entries":"3481","exits":"3616","coordinates":[-122.939,37.893394]},
{"name":"Lafayette (LAFY)","code":"LF","address":"3601 Deer Hill Road, Lafayette CA 94549","entries":"3481","exits":"3616","coordinates":[-122.940,37.893394]},
{"name":"Lafayette (LAFY)","code":"LF","address":"3601 Deer Hill Road, Lafayette CA 94549","entries":"3481","exits":"3616","coordinates":[-122.941,37.893394]},
{"name":"Lafayette (LAFY)","code":"LF","address":"3601 Deer Hill Road, Lafayette CA 94549","entries":"3481","exits":"3616","coordinates":[-122.942,37.893394]},
{"name":"Lafayette (LAFY)","code":"LF","address":"3601 Deer Hill Road, Lafayette CA 94549","entries":"3481","exits":"3616","coordinates":[-122.943,37.893394]},
{"name":"Lafayette (LAFY)","code":"LF","address":"3601 Deer Hill Road, Lafayette CA 94549","entries":"3481","exits":"3616","coordinates":[-122.944,37.893394]},
{"name":"Lafayette (LAFY)","code":"LF","address":"3601 Deer Hill Road, Lafayette CA 94549","entries":"3481","exits":"3616","coordinates":[-122.945,37.893394]},
{"name":"Lafayette (LAFY)","code":"LF","address":"3601 Deer Hill Road, Lafayette CA 94549","entries":"3481","exits":"3616","coordinates":[-122.946,37.893394]},
{"name":"Lafayette (LAFY)","code":"LF","address":"3601 Deer Hill Road, Lafayette CA 94549","entries":"3481","exits":"3616","coordinates":[-122.947,37.893394]},
{"name":"Lafayette (LAFY)","code":"LF","address":"3601 Deer Hill Road, Lafayette CA 94549","entries":"3481","exits":"3616","coordinates":[-122.948,37.893394]},
{"name":"Lafayette (LAFY)","code":"LF","address":"3601 Deer Hill Road, Lafayette CA 94549","entries":"3481","exits":"3616","coordinates":[-122.949,37.893394]},
{"name":"Lafayette (LAFY)","code":"LF","address":"3601 Deer Hill Road, Lafayette CA 94549","entries":"3481","exits":"3616","coordinates":[-122.950,37.893394]},
{"name":"Lafayette (LAFY)","code":"LF","address":"3601 Deer Hill Road, Lafayette CA 94549","entries":"3481","exits":"3616","coordinates":[-122.951,37.893394]},
{"name":"Lafayette (LAFY)","code":"LF","address":"3601 Deer Hill Road, Lafayette CA 94549","entries":"3481","exits":"3616","coordinates":[-122.952,37.893394]},
{"name":"Lafayette (LAFY)","code":"LF","address":"3601 Deer Hill Road, Lafayette CA 94549","entries":"3481","exits":"3616","coordinates":[-122.953,37.893394]},
{"name":"Lafayette (LAFY)","code":"LF","address":"3601 Deer Hill Road, Lafayette CA 94549","entries":"3481","exits":"3616","coordinates":[-122.954,37.893394]},
{"name":"Lafayette (LAFY)","code":"LF","address":"3601 Deer Hill Road, Lafayette CA 94549","entries":"3481","exits":"3616","coordinates":[-122.955,37.893394]},
{"name":"Lafayette (LAFY)","code":"LF","address":"3601 Deer Hill Road, Lafayette CA 94549","entries":"3481","exits":"3616","coordinates":[-122.956,37.893394]},
{"name":"Lafayette (LAFY)","code":"LF","address":"3601 Deer Hill Road, Lafayette CA 94549","entries":"3481","exits":"3616","coordinates":[-122.957,37.893394]},
{"name":"Lafayette (LAFY)","code":"LF","address":"3601 Deer Hill Road, Lafayette CA 94549","entries":"3481","exits":"3616","coordinates":[-122.958,37.893394]},
{"name":"Lafayette (LAFY)","code":"LF","address":"3601 Deer Hill Road, Lafayette CA 94549","entries":"3481","exits":"3616","coordinates":[-122.959,37.893394]},
{"name":"Lafayette (LAFY)","code":"LF","address":"3601 Deer Hill Road, Lafayette CA 94549","entries":"3481","exits":"3616","coordinates":[-122.960,37.893394]},
{"name":"Lafayette (LAFY)","code":"LF","address":"3601 Deer Hill Road, Lafayette CA 94549","entries":"3481","exits":"3616","coordinates":[-122.961,37.893394]},
{"name":"Lafayette (LAFY)","code":"LF","address":"3601 Deer Hill Road, Lafayette CA 94549","entries":"3481","exits":"3616","coordinates":[-122.962,37.893394]},
{"name":"Lafayette (LAFY)","code":"LF","address":"3601 Deer Hill Road, Lafayette CA 94549","entries":"3481","exits":"3616","coordinates":[-122.963,37.893394]},
{"name":"Lafayette (LAFY)","code":"LF","address":"3601 Deer Hill Road, Lafayette CA 94549","entries":"3481","exits":"3616","coordinates":[-122.964,37.893394]},
{"name":"Lafayette (LAFY)","code":"LF","address":"3601 Deer Hill Road, Lafayette CA 94549","entries":"3481","exits":"3616","coordinates":[-122.965,37.893394]},
{"name":"Lafayette (LAFY)","code":"LF","address":"3601 Deer Hill Road, Lafayette CA 94549","entries":"3481","exits":"3616","coordinates":[-122.966,37.893394]},
{"name":"Lafayette (LAFY)","code":"LF","address":"3601 Deer Hill Road, Lafayette CA 94549","entries":"3481","exits":"3616","coordinates":[-122.967,37.893394]},
{"name":"Lafayette (LAFY)","code":"LF","address":"3601 Deer Hill Road, Lafayette CA 94549","entries":"3481","exits":"3616","coordinates":[-122.968,37.893394]},
{"name":"Lafayette (LAFY)","code":"LF","address":"3601 Deer Hill Road, Lafayette CA 94549","entries":"3481","exits":"3616","coordinates":[-122.969,37.893394]},
{"name":"Lafayette (LAFY)","code":"LF","address":"3601 Deer Hill Road, Lafayette CA 94549","entries":"3481","exits":"3616","coordinates":[-122.970,37.893394]},
{"name":"Lafayette (LAFY)","code":"LF","address":"3601 Deer Hill Road, Lafayette CA 94549","entries":"3481","exits":"3616","coordinates":[-122.971,37.893394]},
{"name":"Lafayette (LAFY)","code":"LF","address":"3601 Deer Hill Road, Lafayette CA 94549","entries":"3481","exits":"3616","coordinates":[-122.972,37.893394]},
{"name":"Lafayette (LAFY)","code":"LF","address":"3601 Deer Hill Road, Lafayette CA 94549","entries":"3481","exits":"3616","coordinates":[-122.973,37.893394]},
{"name":"Lafayette (LAFY)","code":"LF","address":"3601 Deer Hill Road, Lafayette CA 94549","entries":"3481","exits":"3616","coordinates":[-122.974,37.893394]},
{"name":"Lafayette (LAFY)","code":"LF","address":"3601 Deer Hill Road, Lafayette CA 94549","entries":"3481","exits":"3616","coordinates":[-122.975,37.893394]},
{"name":"Lafayette (LAFY)","code":"LF","address":"3601 Deer Hill Road, Lafayette CA 94549","entries":"3481","exits":"3616","coordinates":[-122.976,37.893394]},
{"name":"Lafayette (LAFY)","code":"LF","address":"3601 Deer Hill Road, Lafayette CA 94549","entries":"3481","exits":"3616","coordinates":[-122.977,37.893394]},
{"name":"Lafayette (LAFY)","code":"LF","address":"3601 Deer Hill Road, Lafayette CA 94549","entries":"3481","exits":"3616","coordinates":[-122.978,37.893394]},
{"name":"Lafayette (LAFY)","code":"LF","address":"3601 Deer Hill Road, Lafayette CA 94549","entries":"3481","exits":"3616","coordinates":[-122.979,37.893394]},
{"name":"Lafayette (LAFY)","code":"LF","address":"3601 Deer Hill Road, Lafayette CA 94549","entries":"3481","exits":"3616","coordinates":[-122.980,37.893394]},
{"name":"Lafayette (LAFY)","code":"LF","address":"3601 Deer Hill Road, Lafayette CA 94549","entries":"3481","exits":"3616","coordinates":[-122.981,37.893394]},
{"name":"Lafayette (LAFY)","code":"LF","address":"3601 Deer Hill Road, Lafayette CA 94549","entries":"3481","exits":"3616","coordinates":[-122.982,37.893394]},
{"name":"Lafayette (LAFY)","code":"LF","address":"3601 Deer Hill Road, Lafayette CA 94549","entries":"3481","exits":"3616","coordinates":[-122.983,37.893394]},
{"name":"Lafayette (LAFY)","code":"LF","address":"3601 Deer Hill Road, Lafayette CA 94549","entries":"3481","exits":"3616","coordinates":[-122.984,37.893394]},
{"name":"Lafayette (LAFY)","code":"LF","address":"3601 Deer Hill Road, Lafayette CA 94549","entries":"3481","exits":"3616","coordinates":[-122.985,37.893394]},
{"name":"Lafayette (LAFY)","code":"LF","address":"3601 Deer Hill Road, Lafayette CA 94549","entries":"3481","exits":"3616","coordinates":[-122.986,37.893394]},
{"name":"Lafayette (LAFY)","code":"LF","address":"3601 Deer Hill Road, Lafayette CA 94549","entries":"3481","exits":"3616","coordinates":[-122.987,37.893394]},
{"name":"Lafayette (LAFY)","code":"LF","address":"3601 Deer Hill Road, Lafayette CA 94549","entries":"3481","exits":"3616","coordinates":[-122.988,37.893394]},
{"name":"Lafayette (LAFY)","code":"LF","address":"3601 Deer Hill Road, Lafayette CA 94549","entries":"3481","exits":"3616","coordinates":[-122.989,37.893394]},
{"name":"Lafayette (LAFY)","code":"LF","address":"3601 Deer Hill Road, Lafayette CA 94549","entries":"3481","exits":"3616","coordinates":[-122.990,37.893394]},
{"name":"Lafayette (LAFY)","code":"LF","address":"3601 Deer Hill Road, Lafayette CA 94549","entries":"3481","exits":"3616","coordinates":[-122.991,37.893394]},
{"name":"Lafayette (LAFY)","code":"LF","address":"3601 Deer Hill Road, Lafayette CA 94549","entries":"3481","exits":"3616","coordinates":[-122.992,37.893394]},
{"name":"Lafayette (LAFY)","code":"LF","address":"3601 Deer Hill Road, Lafayette CA 94549","entries":"3481","exits":"3616","coordinates":[-122.993,37.893394]},
{"name":"Lafayette (LAFY)","code":"LF","address":"3601 Deer Hill Road, Lafayette CA 94549","entries":"3481","exits":"3616","coordinates":[-122.994,37.893394]},
{"name":"Lafayette (LAFY)","code":"LF","address":"3601 Deer Hill Road, Lafayette CA 94549","entries":"3481","exits":"3616","coordinates":[-122.995,37.893394]},
{"name":"Lafayette (LAFY)","code":"LF","address":"3601 Deer Hill Road, Lafayette CA 94549","entries":"3481","exits":"3616","coordinates":[-122.996,37.893394]},
{"name":"Lafayette (LAFY)","code":"LF","address":"3601 Deer Hill Road, Lafayette CA 94549","entries":"3481","exits":"3616","coordinates":[-122.997,37.893394]},
{"name":"Lafayette (LAFY)","code":"LF","address":"3601 Deer Hill Road, Lafayette CA 94549","entries":"3481","exits":"3616","coordinates":[-122.998,37.893394]},
{"name":"Lafayette (LAFY)","code":"LF","address":"3601 Deer Hill Road, Lafayette CA 94549","entries":"3481","exits":"3616","coordinates":[-122.999,37.893394]},
{"name":"Lafayette (LAFY)","code":"LF","address":"3601 Deer Hill Road, Lafayette CA 94549","entries":"3481","exits":"3616","coordinates":[-122.1000,37.893394]},
{"name":"Lafayette (LAFY)","code":"LF","address":"3601 Deer Hill Road, Lafayette CA 94549","entries":"3481","exits":"3616","coordinates":[-122.1001,37.893394]},
{"name":"Lafayette (LAFY)","code":"LF","address":"3601 Deer Hill Road, Lafayette CA 94549","entries":"3481","exits":"3616","coordinates":[-122.1002,37.893394]},
{"name":"Lafayette (LAFY)","code":"LF","address":"3601 Deer Hill Road, Lafayette CA 94549","entries":"3481","exits":"3616","coordinates":[-122.1003,37.893394]},
{"name":"Lafayette (LAFY)","code":"LF","address":"3601 Deer Hill Road, Lafayette CA 94549","entries":"3481","exits":"3616","coordinates":[-122.1004,37.893394]},
{"name":"Lafayette (LAFY)","code":"LF","address":"3601 Deer Hill Road, Lafayette CA 94549","entries":"3481","exits":"3616","coordinates":[-122.1005,37.893394]},
{"name":"Lafayette (LAFY)","code":"LF","address":"3601 Deer Hill Road, Lafayette CA 94549","entries":"3481","exits":"3616","coordinates":[-122.1006,37.893394]},
{"name":"Lafayette (LAFY)","code":"LF","address":"3601 Deer Hill Road, Lafayette CA 94549","entries":"3481","exits":"3616","coordinates":[-122.1007,37.893394]},
{"name":"Lafayette (LAFY)","code":"LF","address":"3601 Deer Hill Road, Lafayette CA 94549","entries":"3481","exits":"3616","coordinates":[-122.1008,37.893394]},
{"name":"Lafayette (LAFY)","code":"LF","address":"3601 Deer Hill Road, Lafayette CA 94549","entries":"3481","exits":"3616","coordinates":[-122.1009,37.893394]},
{"name":"Lafayette (LAFY)","code":"LF","address":"3601 Deer Hill Road, Lafayette CA 94549","entries":"3481","exits":"3616","coordinates":[-122.1010,37.893394]},
{"name":"Lafayette (LAFY)","code":"LF","address":"3601 Deer Hill Road, Lafayette CA 94549","entries":"3481","exits":"3616","coordinates":[-122.1011,37.893394]},
{"name":"Lafayette (LAFY)","code":"LF","address":"3601 Deer Hill Road, Lafayette CA 94549","entries":"3481","exits":"3616","coordinates":[-122.1012,37.893394]},
{"name":"Lafayette (LAFY)","code":"LF","address":"3601 Deer Hill Road, Lafayette CA 94549","entries":"3481","exits":"3616","coordinates":[-122.1013,37.893394]},
{"name":"Lafayette (LAFY)","code":"LF","address":"3601 Deer Hill Road, Lafayette CA 94549","entries":"3481","exits":"3616","coordinates":[-122.1014,37.893394]},
{"name":"Lafayette (LAFY)","code":"LF","address":"3601 Deer Hill Road, Lafayette CA 94549","entries":"3481","exits":"3616","coordinates":[-122.1015,37.893394]},
{"name":"Lafayette (LAFY)","code":"LF","address":"3601 Deer Hill Road, Lafayette CA 94549","entries":"3481","exits":"3616","coordinates":[-122.1016,37.893394]},
{"name":"Lafayette (LAFY)","code":"LF","address":"3601 Deer Hill Road, Lafayette CA 94549","entries":"3481","exits":"3616","coordinates":[-122.1017,37.893394]},
{"name":"Lafayette (LAFY)","code":"LF","address":"3601 Deer Hill Road, Lafayette CA 94549","entries":"3481","exits":"3616","coordinates":[-122.1018,37.893394]},
{"name":"Lafayette (LAFY)","code":"LF","address":"3601 Deer Hill Road, Lafayette CA 94549","entries":"3481","exits":"3616","coordinates":[-122.1019,37.893394]},
{"name":"Lafayette (LAFY)","code":"LF","address":"3601 Deer Hill Road, Lafayette CA 94549","entries":"3481","exits":"3616","coordinates":[-122.1020,37.893394]},
{"name":"Lafayette (LAFY)","code":"LF","address":"3601 Deer Hill Road, Lafayette CA 94549","entries":"3481","exits":"3616","coordinates":[-122.1021,37.893394]},
{"name":"Lafayette (LAFY)","code":"LF","address":"3601 Deer Hill Road, Lafayette CA 94549","entries":"3481","exits":"3616","coordinates":[-122.1022,37.893394]},
{"name":"Lafayette (LAFY)","code":"LF","address":"3601 Deer Hill Road, Lafayette CA 94549","entries":"3481","exits":"3616","coordinates":[-122.1023,37.893394]},
{"name":"Lafayette (LAFY)","code":"LF","address":"3601 Deer Hill Road, Lafayette CA 94549","entries":"3481","exits":"3616","coordinates":[-122.1024,37.893394]},
{"name":"Lafayette (LAFY)","code":"LF","address":"3601 Deer Hill Road, Lafayette CA 94549","entries":"3481","exits":"3616","coordinates":[-122.1025,37.893394]},
{"name":"Lafayette (LAFY)","code":"LF","address":"3601 Deer Hill Road, Lafayette CA 94549","entries":"3481","exits":"3616","coordinates":[-122.1026,37.893394]},
{"name":"Lafayette (LAFY)","code":"LF","address":"3601 Deer Hill Road, Lafayette CA 94549","entries":"3481","exits":"3616","coordinates":[-122.1027,37.893394]},
{"name":"Lafayette (LAFY)","code":"LF","address":"3601 Deer Hill Road, Lafayette CA 94549","entries":"3481","exits":"3616","coordinates":[-122.1028,37.893394]},
{"name":"Lafayette (LAFY)","code":"LF","address":"3601 Deer Hill Road, Lafayette CA 94549","entries":"3481","exits":"3616","coordinates":[-122.1029,37.893394]},
{"name":"Lafayette (LAFY)","code":"LF","address":"3601 Deer Hill Road, Lafayette CA 94549","entries":"3481","exits":"3616","coordinates":[-122.1030,37.893394]},
{"name":"Lafayette (LAFY)","code":"LF","address":"3601 Deer Hill Road, Lafayette CA 94549","entries":"3481","exits":"3616","coordinates":[-122.1031,37.893394]},
{"name":"Lafayette (LAFY)","code":"LF","address":"3601 Deer Hill Road, Lafayette CA 94549","entries":"3481","exits":"3616","coordinates":[-122.1032,37.893394]},
{"name":"Lafayette (LAFY)","code":"LF","address":"3601 Deer Hill Road, Lafayette CA 94549","entries":"3481","exits":"3616","coordinates":[-122.1033,37.893394]},
{"name":"Lafayette (LAFY)","code":"LF","address":"3601 Deer Hill Road, Lafayette CA 94549","entries":"3481","exits":"3616","coordinates":[-122.1034,37.893394]},
{"name":"Lafayette (LAFY)","code":"LF","address":"3601 Deer Hill Road, Lafayette CA 94549","entries":"3481","exits":"3616","coordinates":[-122.1035,37.893394]},
{"name":"Lafayette (LAFY)","code":"LF","address":"3601 Deer Hill Road, Lafayette CA 94549","entries":"3481","exits":"3616","coordinates":[-122.1036,37.893394]},
{"name":"Lafayette (LAFY)","code":"LF","address":"3601 Deer Hill Road, Lafayette CA 94549","entries":"3481","exits":"3616","coordinates":[-122.1037,37.893394]},
{"name":"Lafayette (LAFY)","code":"LF","address":"3601 Deer Hill Road, Lafayette CA 94549","entries":"3481","exits":"3616","coordinates":[-122.1038,37.893394]},
{"name":"Lafayette (LAFY)","code":"LF","address":"3601 Deer Hill Road, Lafayette CA 94549","entries":"3481","exits":"3616","coordinates":[-122.1039,37.893394]},
{"name":"Lafayette (LAFY)","code":"LF","address":"3601 Deer Hill Road, Lafayette CA 94549","entries":"3481","exits":"3616","coordinates":[-122.1040,37.893394]},
{"name":"Lafayette (LAFY)","code":"LF","address":"3601 Deer Hill Road, Lafayette CA 94549","entries":"3481","exits":"3616","coordinates":[-122.1041,37.893394]},
{"name":"Lafayette (LAFY)","code":"LF","address":"3601 Deer Hill Road, Lafayette CA 94549","entries":"3481","exits":"3616","coordinates":[-122.1042,37.893394]},
{"name":"Lafayette (LAFY)","code":"LF","address":"3601 Deer Hill Road, Lafayette CA 94549","entries":"3481","exits":"3616","coordinates":[-122.1043,37.893394]},
{"name":"Lafayette (LAFY)","code":"LF","address":"3601 Deer Hill Road, Lafayette CA 94549","entries":"3481","exits":"3616","coordinates":[-122.1044,37.893394]},
{"name":"Lafayette (LAFY)","code":"LF","address":"3601 Deer Hill Road, Lafayette CA 94549","entries":"3481","exits":"3616","coordinates":[-122.1045,37.893394]},
{"name":"Lafayette (LAFY)","code":"LF","address":"3601 Deer Hill Road, Lafayette CA 94549","entries":"3481","exits":"3616","coordinates":[-122.1046,37.893394]},
{"name":"Lafayette (LAFY)","code":"LF","address":"3601 Deer Hill Road, Lafayette CA 94549","entries":"3481","exits":"3616","coordinates":[-122.1047,37.893394]},
{"name":"Lafayette (LAFY)","code":"LF","address":"3601 Deer Hill Road, Lafayette CA 94549","entries":"3481","exits":"3616","coordinates":[-122.1048,37.893394]},
{"name":"Lafayette (LAFY)","code":"LF","address":"3601 Deer Hill Road, Lafayette CA 94549","entries":"3481","exits":"3616","coordinates":[-122.1049,37.893394]},
{"name":"Lafayette (LAFY)","code":"LF","address":"3601 Deer Hill Road, Lafayette CA 94549","entries":"3481","exits":"3616","coordinates":[-122.1050,37.893394]},
{"name":"Lafayette (LAFY)","code":"LF","address":"3601 Deer Hill Road, Lafayette CA 94549","entries":"3481","exits":"3616","coordinates":[-122.1051,37.893394]},
{"name":"Lafayette (LAFY)","code":"LF","address":"3601 Deer Hill Road, Lafayette CA 94549","entries":"3481","exits":"3616","coordinates":[-122.1052,37.893394]},
{"name":"Lafayette (LAFY)","code":"LF","address":"3601 Deer Hill Road, Lafayette CA 94549","entries":"3481","exits":"3616","coordinates":[-122.1053,37.893394]},
{"name":"Lafayette (LAFY)","code":"LF","address":"3601 Deer Hill Road, Lafayette CA 94549","entries":"3481","exits":"3616","coordinates":[-122.1054,37.893394]},
{"name":"Lafayette (LAFY)","code":"LF","address":"3601 Deer Hill Road, Lafayette CA 94549","entries":"3481","exits":"3616","coordinates":[-122.1055,37.893394]},
{"name":"Lafayette (LAFY)","code":"LF","address":"3601 Deer Hill Road, Lafayette CA 94549","entries":"3481","exits":"3616","coordinates":[-122.1056,37.893394]}
]
